[{"UserID":"383A363D3E36393A363B","Latitude":53.38439,"Longitude":-2.130288,"LastSeen":"2016-05-13T03:31:00","ProfileURL":"http://static4.businessinsider.com/image/56c640526e97c625048b822a-480/donald-trump.jpg","Forename":"PaleVioletRed1051907","Surname":"Thistle","Age":49,"IsDangerous":true,"Tags":["Missing"],"Status":"Returned"},{"UserID":"383A353C3B363A3A333A","Latitude":53.55038,"Longitude":-2.210484,"LastSeen":"2015-04-08T23:37:00","ProfileURL":"http://i2.cdn.turner.com/cnnnext/dam/assets/150827102252-donald-trump-july-10-2015-super-169.jpg","Forename":"Linen1008557","Surname":"Cornsilk","Age":16,"IsDangerous":false,"Tags":["Missing"],"Status":"Returned"},{"UserID":"383A373B3E36343A363A","Latitude":53.43956,"Longitude":-2.280291,"LastSeen":"2014-07-09T22:00:00","ProfileURL":"http://static4.businessinsider.com/image/55fad9869dd7cc15008bb1ba-480/hillary-clinton-thumbs-up.jpg","Forename":"Aqua1023261","Surname":"LightSlateGray","Age":40,"IsDangerous":true,"Tags":["Missing"],"Status":"Returned"},{"UserID":"383A373B3D36333A353A","Latitude":53.57421,"Longitude":-2.391058,"LastSeen":"2014-05-23T22:09:00","ProfileURL":"https://assets.donaldjtrump.com/site/about_body_img_1.jpg","Forename":"LightBlue1041397","Surname":"Gray","Age":43,"IsDangerous":false,"Tags":["Missing"],"Status":"Returned"},{"UserID":"383A363C39363B3A313A","Latitude":53.46584,"Longitude":-2.228761,"LastSeen":"2015-05-14T21:10:00","ProfileURL":"http://img.wonkette.com/wp-content/uploads/2016/08/nbc-fires-donald-trump-after-he-calls-mexicans-rapists-and-drug-runners.jpg","Forename":"LightCyan1025797","Surname":"Navy","Age":38,"IsDangerous":false,"Tags":["Missing"],"Status":"Returned"},{"UserID":"383A363B4036353A383A","Latitude":53.49586,"Longitude":-2.539526,"LastSeen":"2015-04-03T23:00:00","ProfileURL":"http://twt-thumbs.washtimes.com/media/image/2015/12/08/DEM_2016_Clinton.JPEG-09fe7_c0-174-2166-1436_s885x516.jpg?9867f27f8024a954e67a9f6c533524dcb1e43d0d","Forename":"Peru1004874","Surname":"Snow","Age":24,"IsDangerous":true,"Tags":["Missing"],"Status":"Returned"},{"UserID":"383A363B3936373A313A","Latitude":53.44948,"Longitude":-2.060884,"LastSeen":"2015-05-02T00:55:00","ProfileURL":"https://mises.org/sites/default/files/23158392405_d3e3b60cb8_o.jpg","Forename":"Green1014875","Surname":"LightGreen","Age":47,"IsDangerous":false,"Tags":["Missing"],"Status":"Returned"},{"UserID":"383A373B3C36343A343A","Latitude":53.44321,"Longitude":-2.289424,"LastSeen":"2014-07-01T17:48:00","ProfileURL":"http://jtf.org/wp-content/uploads/2015/08/hillary-clinton-laughing.jpg","Forename":"MediumAquamarine1028231","Surname":"Silver","Age":90,"IsDangerous":false,"Tags":["Alzheimer's","Missing"],"Status":"Returned"},{"UserID":"383A353C3C36383A343A","Latitude":53.49962,"Longitude":-2.344342,"LastSeen":"2016-02-14T00:36:00","ProfileURL":"http://static4.businessinsider.com/image/56c640526e97c625048b822a-480/donald-trump.jpg","Forename":"Salmon1015074","Surname":"DarkGray","Age":20,"IsDangerous":true,"Tags":["Missing"],"Status":"Returned"},{"UserID":"383A373A4136383A3939","Latitude":53.45622,"Longitude":-2.216133,"LastSeen":"2013-10-07T18:30:00","ProfileURL":"http://static4.businessinsider.com/image/55fad9869dd7cc15008bb1ba-480/hillary-clinton-thumbs-up.jpg","Forename":"IndianRed1012250","Surname":"LightGoldenrodYellow","Age":30,"IsDangerous":false,"Tags":["Missing"],"Status":"Dormant"},{"UserID":"383A363C4036383A383A","Latitude":53.52543,"Longitude":-2.494869,"LastSeen":"2015-01-28T02:16:00","ProfileURL":"http://i2.cdn.turner.com/cnnnext/dam/assets/150827102252-donald-trump-july-10-2015-super-169.jpg","Forename":"Green1032400","Surname":"Tan","Age":46,"IsDangerous":false,"Tags":["Missing"],"Status":"Returned"},{"UserID":"383A363D4236393A3A3B","Latitude":53.55268,"Longitude":-2.61917,"LastSeen":"2016-05-30T01:10:00","ProfileURL":"https://assets.donaldjtrump.com/site/about_body_img_1.jpg","Forename":"DarkBlue1081796","Surname":"MintCream","Age":25,"IsDangerous":false,"Tags":["Missing"],"Status":"Returned"},{"UserID":"383A373A3F36383A3739","Latitude":53.45151,"Longitude":-2.270836,"LastSeen":"2013-09-30T13:30:00","ProfileURL":"http://twt-thumbs.washtimes.com/media/image/2015/12/08/DEM_2016_Clinton.JPEG-09fe7_c0-174-2166-1436_s885x516.jpg?9867f27f8024a954e67a9f6c533524dcb1e43d0d","Forename":"WhiteSmoke1067934","Surname":"Gainsboro","Age":22,"IsDangerous":true,"Tags":["Missing"],"Status":"Returned"},{"UserID":"383A363C41363C3A393A","Latitude":53.46188,"Longitude":-1.989983,"LastSeen":"2015-08-01T01:16:00","ProfileURL":"http://img.wonkette.com/wp-content/uploads/2016/08/nbc-fires-donald-trump-after-he-calls-mexicans-rapists-and-drug-runners.jpg","Forename":"SandyBrown1081776","Surname":"LightGreen","Age":67,"IsDangerous":true,"Tags":["Alzheimer's","Missing"],"Status":"Returned"},{"UserID":"383A363B3D36363A353A","Latitude":53.50753,"Longitude":-2.338087,"LastSeen":"2014-10-08T20:43:00","ProfileURL":"http://static4.businessinsider.com/image/56c640526e97c625048b822a-480/donald-trump.jpg","Forename":"DarkGray1046999","Surname":"LightYellow","Age":27,"IsDangerous":false,"Tags":["Missing"],"Status":"Returned"},{"UserID":"383A373B3C36363A343A","Latitude":53.47969,"Longitude":-2.096854,"LastSeen":"2014-10-03T19:00:00","ProfileURL":"http://i2.cdn.turner.com/cnnnext/dam/assets/150827102252-donald-trump-july-10-2015-super-169.jpg","Forename":"Plum1062863","Surname":"MediumSpringGreen","Age":18,"IsDangerous":false,"Tags":["Missing"],"Status":"Returned"},{"UserID":"383A353C3D36383A353A","Latitude":53.49439,"Longitude":-2.646602,"LastSeen":"2015-01-09T19:40:00","ProfileURL":"https://mises.org/sites/default/files/23158392405_d3e3b60cb8_o.jpg","Forename":"SteelBlue1054120","Surname":"LightSeaGreen","Age":92,"IsDangerous":true,"Tags":["Alzheimer's","Missing"],"Status":"Returned"},{"UserID":"383A363B40363B3A3839","Latitude":53.53882,"Longitude":-2.019075,"LastSeen":"2014-03-03T21:53:00","ProfileURL":"https://assets.donaldjtrump.com/site/about_body_img_1.jpg","Forename":"Goldenrod1038778","Surname":"FireBrick","Age":35,"IsDangerous":false,"Tags":["Missing"],"Status":"Returned"},{"UserID":"383A373B3A36343A323A","Latitude":53.55569,"Longitude":-2.270233,"LastSeen":"2014-06-21T21:38:00","ProfileURL":"http://img.wonkette.com/wp-content/uploads/2016/08/nbc-fires-donald-trump-after-he-calls-mexicans-rapists-and-drug-runners.jpg","Forename":"DarkSeaGreen1049804","Surname":"Navy","Age":75,"IsDangerous":false,"Tags":["Alzheimer's","Missing"],"Status":"Returned"},{"UserID":"383A353D4236393A3A3B","Latitude":53.50921,"Longitude":-2.255506,"LastSeen":"2016-05-29T19:11:00","ProfileURL":"http://static4.businessinsider.com/image/56c640526e97c625048b822a-480/donald-trump.jpg","Forename":"Beige1026264","Surname":"LawnGreen","Age":9,"IsDangerous":false,"Tags":["Missing"],"Status":"Returned"},{"UserID":"383A363C4236333A3A3B","Latitude":53.51557,"Longitude":-2.125426,"LastSeen":"2015-08-02T06:00:00","ProfileURL":"http://i2.cdn.turner.com/cnnnext/dam/assets/150827102252-donald-trump-july-10-2015-super-169.jpg","Forename":"Pink1015915","Surname":"MediumAquamarine","Age":25,"IsDangerous":false,"Tags":["Missing"],"Status":"Returned"},{"UserID":"383A353D3F363B3A373B","Latitude":53.53413,"Longitude":-2.143422,"LastSeen":"2016-08-01T10:30:00","ProfileURL":"https://assets.donaldjtrump.com/site/about_body_img_1.jpg","Forename":"NavajoWhite1052058","Surname":"SeaShell","Age":8,"IsDangerous":false,"Tags":["Missing"],"Status":"Returned"},{"UserID":"383A363C3C363A3A343A","Latitude":53.62763,"Longitude":-2.140231,"LastSeen":"2016-04-13T08:39:00","ProfileURL":"http://jtf.org/wp-content/uploads/2015/08/hillary-clinton-laughing.jpg","Forename":"Red1002937","Surname":"PaleGoldenrod","Age":18,"IsDangerous":false,"Tags":["Runaway"],"Status":"Returned"},{"UserID":"383A363C3936363A313B","Latitude":53.59903,"Longitude":-2.378654,"LastSeen":"2015-12-14T19:15:00","ProfileURL":"http://img.wonkette.com/wp-content/uploads/2016/08/nbc-fires-donald-trump-after-he-calls-mexicans-rapists-and-drug-runners.jpg","Forename":"OldLace1086615","Surname":"Yellow","Age":78,"IsDangerous":false,"Tags":["Alzheimer's","Missing"],"Status":"Returned"},{"UserID":"383A363D3A363C3A323B","Latitude":53.43668,"Longitude":-2.242108,"LastSeen":"2016-08-21T04:23:00","ProfileURL":"http://static4.businessinsider.com/image/55fad9869dd7cc15008bb1ba-480/hillary-clinton-thumbs-up.jpg","Forename":"LightSlateGray1057842","Surname":"Linen","Age":33,"IsDangerous":false,"Tags":["Missing"],"Status":"Returned"},{"UserID":"383A363D3E363B3A363B","Latitude":53.64299,"Longitude":-2.105729,"LastSeen":"2016-07-29T02:47:00","ProfileURL":"http://static4.businessinsider.com/image/56c640526e97c625048b822a-480/donald-trump.jpg","Forename":"Sienna1005995","Surname":"LawnGreen","Age":18,"IsDangerous":true,"Tags":["Missing"],"Status":"Returned"},{"UserID":"383A363C3B36343A333B","Latitude":53.48634,"Longitude":-2.321656,"LastSeen":"2015-10-02T23:00:00","ProfileURL":"http://i2.cdn.turner.com/cnnnext/dam/assets/150827102252-donald-trump-july-10-2015-super-169.jpg","Forename":"RosyBrown1020485","Surname":"DarkGreen","Age":31,"IsDangerous":false,"Tags":["Missing"],"Status":"Returned"},{"UserID":"383A353D3C36393A343B","Latitude":53.50136,"Longitude":-2.23827,"LastSeen":"2016-05-03T20:00:00","ProfileURL":"http://twt-thumbs.washtimes.com/media/image/2015/12/08/DEM_2016_Clinton.JPEG-09fe7_c0-174-2166-1436_s885x516.jpg?9867f27f8024a954e67a9f6c533524dcb1e43d0d","Forename":"LightGoldenrodYellow1003856","Surname":"LightYellow","Age":31,"IsDangerous":false,"Tags":["Missing"],"Status":"Returned"},{"UserID":"383A363B40363C3A3839","Latitude":53.54869,"Longitude":-2.108755,"LastSeen":"2014-04-21T10:56:00","ProfileURL":"https://mises.org/sites/default/files/23158392405_d3e3b60cb8_o.jpg","Forename":"MediumSpringGreen1034393","Surname":"DodgerBlue","Age":19,"IsDangerous":false,"Tags":["Missing"],"Status":"Returned"},{"UserID":"383A363B3A36383A323A","Latitude":53.48711,"Longitude":-2.211828,"LastSeen":"2014-12-24T09:30:00","ProfileURL":"http://jtf.org/wp-content/uploads/2015/08/hillary-clinton-laughing.jpg","Forename":"IndianRed1056608","Surname":"DarkTurquoise","Age":0,"IsDangerous":false,"Tags":["Missing"],"Status":"Returned"},{"UserID":"383A373B3936333A313A","Latitude":53.5246,"Longitude":-2.102085,"LastSeen":"2014-12-27T19:37:00","ProfileURL":"http://static4.businessinsider.com/image/55fad9869dd7cc15008bb1ba-480/hillary-clinton-thumbs-up.jpg","Forename":"LightGreen1005010","Surname":"Cornsilk","Age":19,"IsDangerous":true,"Tags":["Missing"],"Status":"Returned"},{"UserID":"383A363D3A36383A323B","Latitude":53.45785,"Longitude":-2.244593,"LastSeen":"2016-03-12T11:00:00","ProfileURL":"https://assets.donaldjtrump.com/site/about_body_img_1.jpg","Forename":"DeepSkyBlue1073997","Surname":"LightGreen","Age":36,"IsDangerous":true,"Tags":["Missing"],"Status":"Returned"},{"UserID":"383A353C3E363B3A363A","Latitude":53.51367,"Longitude":-2.227435,"LastSeen":"2015-06-07T10:00:00","ProfileURL":"http://img.wonkette.com/wp-content/uploads/2016/08/nbc-fires-donald-trump-after-he-calls-mexicans-rapists-and-drug-runners.jpg","Forename":"LightPink1021467","Surname":"Goldenrod","Age":48,"IsDangerous":false,"Tags":["Missing"],"Status":"Returned"},{"UserID":"383A363C3E363A3A363A","Latitude":53.61512,"Longitude":-2.412632,"LastSeen":"2016-04-28T11:15:00","ProfileURL":"http://static4.businessinsider.com/image/56c640526e97c625048b822a-480/donald-trump.jpg","Forename":"Orange1087448","Surname":"GreenYellow","Age":12,"IsDangerous":true,"Tags":["Missing"],"Status":"Returned"},{"UserID":"383A373B3E36353A363A","Latitude":53.46236,"Longitude":-2.113866,"LastSeen":"2015-03-03T01:57:00","ProfileURL":"http://twt-thumbs.washtimes.com/media/image/2015/12/08/DEM_2016_Clinton.JPEG-09fe7_c0-174-2166-1436_s885x516.jpg?9867f27f8024a954e67a9f6c533524dcb1e43d0d","Forename":"HotPink1087467","Surname":"Linen","Age":17,"IsDangerous":false,"Tags":["Missing"],"Status":"Returned"},{"UserID":"383A353C3F36333A373B","Latitude":53.58399,"Longitude":-2.283481,"LastSeen":"2015-09-06T20:28:00","ProfileURL":"https://mises.org/sites/default/files/23158392405_d3e3b60cb8_o.jpg","Forename":"Green1065034","Surname":"DarkSlateGray","Age":12,"IsDangerous":false,"Tags":["Missing"],"Status":"Returned"},{"UserID":"383A363B3B36383A333A","Latitude":53.38439,"Longitude":-2.130288,"LastSeen":"2016-05-02T22:30:00","ProfileURL":"http://jtf.org/wp-content/uploads/2015/08/hillary-clinton-laughing.jpg","Forename":"Wheat1047241","Surname":"LightSkyBlue","Age":28,"IsDangerous":true,"Tags":["Missing"],"Status":"Returned"},{"UserID":"383A363C42363C3A3A3A","Latitude":53.51667,"Longitude":-2.542551,"LastSeen":"2015-08-15T00:04:00","ProfileURL":"http://static4.businessinsider.com/image/55fad9869dd7cc15008bb1ba-480/hillary-clinton-thumbs-up.jpg","Forename":"SeaGreen1058463","Surname":"BlueViolet","Age":25,"IsDangerous":false,"Tags":["Missing"],"Status":"Returned"},{"UserID":"383A353D3B36373A333B","Latitude":53.39598,"Longitude":-2.065575,"LastSeen":"2016-03-31T21:03:00","ProfileURL":"http://i2.cdn.turner.com/cnnnext/dam/assets/150827102252-donald-trump-july-10-2015-super-169.jpg","Forename":"Navy1048344","Surname":"DarkTurquoise","Age":92,"IsDangerous":true,"Tags":["Alzheimer's","Missing"],"Status":"Returned"},{"UserID":"383A353A3B36383A3339","Latitude":53.49519,"Longitude":-2.273497,"LastSeen":"2013-09-11T03:36:00","ProfileURL":"http://twt-thumbs.washtimes.com/media/image/2015/12/08/DEM_2016_Clinton.JPEG-09fe7_c0-174-2166-1436_s885x516.jpg?9867f27f8024a954e67a9f6c533524dcb1e43d0d","Forename":"Red1055906","Surname":"MediumSlateBlue","Age":23,"IsDangerous":false,"Tags":["Missing"],"Status":"Returned"},{"UserID":"383A363D39363A3A313B","Latitude":53.57006,"Longitude":-2.355878,"LastSeen":"2016-06-02T13:55:00","ProfileURL":"https://mises.org/sites/default/files/23158392405_d3e3b60cb8_o.jpg","Forename":"MediumSlateBlue1014464","Surname":"SandyBrown","Age":12,"IsDangerous":false,"Tags":["Missing"],"Status":"Returned"},{"UserID":"383A363A3936393A3139","Latitude":53.42978,"Longitude":-2.149483,"LastSeen":"2013-10-18T13:34:00","ProfileURL":"https://assets.donaldjtrump.com/site/about_body_img_1.jpg","Forename":"DimGray1004013","Surname":"SteelBlue","Age":33,"IsDangerous":false,"Tags":["Missing"],"Status":"Returned"},{"UserID":"383A363D3E36383A363B","Latitude":53.42354,"Longitude":-2.131808,"LastSeen":"2016-01-13T11:00:00","ProfileURL":"http://img.wonkette.com/wp-content/uploads/2016/08/nbc-fires-donald-trump-after-he-calls-mexicans-rapists-and-drug-runners.jpg","Forename":"Aqua1056510","Surname":"HotPink","Age":44,"IsDangerous":false,"Tags":["Missing"],"Status":"Returned"},{"UserID":"383A363C3A36363A323B","Latitude":53.5013,"Longitude":-2.406098,"LastSeen":"2016-09-03T21:23:00","ProfileURL":"http://jtf.org/wp-content/uploads/2015/08/hillary-clinton-laughing.jpg","Forename":"Teal1066608","Surname":"Gainsboro","Age":15,"IsDangerous":false,"Tags":["Missing"],"Status":"Returned"},{"UserID":"383A363B3C363B3A3439","Latitude":53.37946,"Longitude":-2.151923,"LastSeen":"2014-03-21T14:00:00","ProfileURL":"http://static4.businessinsider.com/image/56c640526e97c625048b822a-480/donald-trump.jpg","Forename":"PaleTurquoise1061094","Surname":"Maroon","Age":19,"IsDangerous":false,"Tags":["Missing"],"Status":"Returned"},{"UserID":"383A363B4236343A3A3A","Latitude":53.58996,"Longitude":-2.356951,"LastSeen":"2014-07-26T21:30:00","ProfileURL":"http://i2.cdn.turner.com/cnnnext/dam/assets/150827102252-donald-trump-july-10-2015-super-169.jpg","Forename":"YellowGreen1037445","Surname":"LightSteelBlue","Age":32,"IsDangerous":false,"Tags":["Missing"],"Status":"Returned"},{"UserID":"383A373B4036373A383A","Latitude":53.46366,"Longitude":-2.250863,"LastSeen":"2015-06-10T13:42:00","ProfileURL":"https://assets.donaldjtrump.com/site/about_body_img_1.jpg","Forename":"CornflowerBlue1045219","Surname":"Goldenrod","Age":12,"IsDangerous":false,"Tags":["Missing"],"Status":"Returned"},{"UserID":"383A363B4036363A383A","Latitude":53.4413,"Longitude":-2.209252,"LastSeen":"2015-10-23T18:15:00","ProfileURL":"http://img.wonkette.com/wp-content/uploads/2016/08/nbc-fires-donald-trump-after-he-calls-mexicans-rapists-and-drug-runners.jpg","Forename":"LightBlue1036574","Surname":"DodgerBlue","Age":30,"IsDangerous":false,"Tags":["Missing"],"Status":"Returned"},{"UserID":"383A373B3936383A313A","Latitude":53.53364,"Longitude":-2.558174,"LastSeen":"2014-12-20T14:00:00","ProfileURL":"http://static4.businessinsider.com/image/56c640526e97c625048b822a-480/donald-trump.jpg","Forename":"MediumBlue1080361","Surname":"MidnightBlue","Age":76,"IsDangerous":false,"Tags":["Alzheimer's","Missing"],"Status":"Returned"},{"UserID":"383A373B3C36353A343A","Latitude":53.62009,"Longitude":-2.157155,"LastSeen":"2014-08-18T11:30:00","ProfileURL":"http://i2.cdn.turner.com/cnnnext/dam/assets/150827102252-donald-trump-july-10-2015-super-169.jpg","Forename":"Maroon1032466","Surname":"Pink","Age":16,"IsDangerous":true,"Tags":["Missing"],"Status":"Returned"},{"UserID":"383A373B3A36383A323A","Latitude":53.51367,"Longitude":-2.227435,"LastSeen":"2014-12-25T02:38:00","ProfileURL":"http://static4.businessinsider.com/image/55fad9869dd7cc15008bb1ba-480/hillary-clinton-thumbs-up.jpg","Forename":"Tan1039459","Surname":"Salmon","Age":34,"IsDangerous":true,"Tags":["Missing"],"Status":"Returned"},{"UserID":"383A373B3C363C3A3439","Latitude":53.58879,"Longitude":-2.246422,"LastSeen":"2014-03-31T23:26:00","ProfileURL":"https://assets.donaldjtrump.com/site/about_body_img_1.jpg","Forename":"HotPink1072837","Surname":"DarkGray","Age":18,"IsDangerous":true,"Tags":["Missing"],"Status":"Returned"},{"UserID":"383A373B3F363A3A3739","Latitude":53.58541,"Longitude":-2.420168,"LastSeen":"2014-01-07T01:34:00","ProfileURL":"http://img.wonkette.com/wp-content/uploads/2016/08/nbc-fires-donald-trump-after-he-calls-mexicans-rapists-and-drug-runners.jpg","Forename":"LightGray1054841","Surname":"Tan","Age":17,"IsDangerous":false,"Tags":["Missing"],"Status":"Returned"},{"UserID":"383A363B3E36353A363A","Latitude":53.55879,"Longitude":-2.283584,"LastSeen":"2014-08-27T00:00:00","ProfileURL":"http://static4.businessinsider.com/image/56c640526e97c625048b822a-480/donald-trump.jpg","Forename":"LightSlateGray1026857","Surname":"Olive","Age":20,"IsDangerous":false,"Tags":["Missing"],"Status":"Returned"},{"UserID":"383A353C3C363C3A343A","Latitude":53.41213,"Longitude":-2.153935,"LastSeen":"2015-07-10T19:00:00","ProfileURL":"http://twt-thumbs.washtimes.com/media/image/2015/12/08/DEM_2016_Clinton.JPEG-09fe7_c0-174-2166-1436_s885x516.jpg?9867f27f8024a954e67a9f6c533524dcb1e43d0d","Forename":"Tomato1035971","Surname":"SaddleBrown","Age":32,"IsDangerous":false,"Tags":["Missing"],"Status":"Returned"},{"UserID":"383A353D3D363A3A353B","Latitude":53.54524,"Longitude":-2.107855,"LastSeen":"2016-06-16T14:38:00","ProfileURL":"http://i2.cdn.turner.com/cnnnext/dam/assets/150827102252-donald-trump-july-10-2015-super-169.jpg","Forename":"SlateGray1066636","Surname":"DarkOrchid","Age":15,"IsDangerous":true,"Tags":["Missing"],"Status":"Returned"},{"UserID":"383A363B3936333A313A","Latitude":53.54516,"Longitude":-2.103387,"LastSeen":"2014-04-26T17:00:00","ProfileURL":"https://mises.org/sites/default/files/23158392405_d3e3b60cb8_o.jpg","Forename":"Beige1047476","Surname":"BlanchedAlmond","Age":21,"IsDangerous":true,"Tags":["Missing"],"Status":"Returned"},{"UserID":"383A353C3C36393A343A","Latitude":53.5299,"Longitude":-2.60894,"LastSeen":"2015-02-24T23:41:00","ProfileURL":"http://jtf.org/wp-content/uploads/2015/08/hillary-clinton-laughing.jpg","Forename":"SlateBlue1005871","Surname":"Bisque","Age":18,"IsDangerous":false,"Tags":["Missing"],"Status":"Returned"},{"UserID":"383A363D3A36393A323B","Latitude":53.54026,"Longitude":-2.413382,"LastSeen":"2016-05-29T23:04:00","ProfileURL":"http://static4.businessinsider.com/image/55fad9869dd7cc15008bb1ba-480/hillary-clinton-thumbs-up.jpg","Forename":"DarkGray1067622","Surname":"GhostWhite","Age":13,"IsDangerous":false,"Tags":["Missing"],"Status":"Returned"},{"UserID":"383A363D39363B3A313B","Latitude":53.58604,"Longitude":-2.447308,"LastSeen":"2016-07-09T04:00:00","ProfileURL":"http://twt-thumbs.washtimes.com/media/image/2015/12/08/DEM_2016_Clinton.JPEG-09fe7_c0-174-2166-1436_s885x516.jpg?9867f27f8024a954e67a9f6c533524dcb1e43d0d","Forename":"Orchid1018572","Surname":"LightCoral","Age":33,"IsDangerous":true,"Tags":["Missing"],"Status":"Returned"},{"UserID":"383A363B3C36333A343A","Latitude":53.46584,"Longitude":-2.228761,"LastSeen":"2014-05-18T22:15:00","ProfileURL":"https://assets.donaldjtrump.com/site/about_body_img_1.jpg","Forename":"Indigo1050211","Surname":"PaleGoldenrod","Age":55,"IsDangerous":false,"Tags":["Missing"],"Status":"Returned"},{"UserID":"383A363B42363A3A3A39","Latitude":53.39466,"Longitude":-2.266324,"LastSeen":"2014-01-22T13:16:00","ProfileURL":"http://img.wonkette.com/wp-content/uploads/2016/08/nbc-fires-donald-trump-after-he-calls-mexicans-rapists-and-drug-runners.jpg","Forename":"Aquamarine1089128","Surname":"LightSalmon","Age":13,"IsDangerous":false,"Tags":["Missing"],"Status":"Returned"},{"UserID":"383A363C3E363C3A363A","Latitude":53.39927,"Longitude":-2.166553,"LastSeen":"2015-07-18T12:01:00","ProfileURL":"http://static4.businessinsider.com/image/56c640526e97c625048b822a-480/donald-trump.jpg","Forename":"Cyan1068046","Surname":"Black","Age":45,"IsDangerous":false,"Tags":["Missing"],"Status":"Returned"},{"UserID":"383A363B3B36353A333A","Latitude":53.57956,"Longitude":-2.212124,"LastSeen":"2014-10-04T00:10:00","ProfileURL":"http://i2.cdn.turner.com/cnnnext/dam/assets/150827102252-donald-trump-july-10-2015-super-169.jpg","Forename":"Salmon1002392","Surname":"Black","Age":21,"IsDangerous":false,"Tags":["Missing"],"Status":"Returned"},{"UserID":"383A353C3C363A3A343A","Latitude":53.53992,"Longitude":-2.394047,"LastSeen":"2015-03-30T14:30:00","ProfileURL":"https://assets.donaldjtrump.com/site/about_body_img_1.jpg","Forename":"AntiqueWhite1036568","Surname":"Brown","Age":51,"IsDangerous":false,"Tags":["Missing"],"Status":"Returned"},{"UserID":"383A363C4136353A393B","Latitude":53.63624,"Longitude":-2.139942,"LastSeen":"2016-03-21T13:07:00","ProfileURL":"http://img.wonkette.com/wp-content/uploads/2016/08/nbc-fires-donald-trump-after-he-calls-mexicans-rapists-and-drug-runners.jpg","Forename":"Peru1004138","Surname":"Peru","Age":13,"IsDangerous":false,"Tags":["Missing"],"Status":"Returned"},{"UserID":"383A353C3E36333A363B","Latitude":53.55642,"Longitude":-2.62857,"LastSeen":"2015-09-02T03:05:00","ProfileURL":"https://mises.org/sites/default/files/23158392405_d3e3b60cb8_o.jpg","Forename":"MediumPurple1000919","Surname":"Azure","Age":50,"IsDangerous":false,"Tags":["Missing"],"Status":"Returned"},{"UserID":"383A363D3D36383A353B","Latitude":53.56201,"Longitude":-2.429177,"LastSeen":"2016-03-25T15:15:00","ProfileURL":"http://static4.businessinsider.com/image/56c640526e97c625048b822a-480/donald-trump.jpg","Forename":"DarkBlue1004553","Surname":"Wheat","Age":51,"IsDangerous":false,"Tags":["Missing"],"Status":"Returned"},{"UserID":"383A373B3B36363A333A","Latitude":53.55303,"Longitude":-2.12122,"LastSeen":"2015-08-13T06:00:00","ProfileURL":"http://i2.cdn.turner.com/cnnnext/dam/assets/150827102252-donald-trump-july-10-2015-super-169.jpg","Forename":"Brown1037314","Surname":"DarkGoldenrod","Age":30,"IsDangerous":false,"Tags":["Missing"],"Status":"Returned"},{"UserID":"383A363B3936343A313A","Latitude":53.45378,"Longitude":-2.170878,"LastSeen":"2014-06-18T08:00:00","ProfileURL":"https://assets.donaldjtrump.com/site/about_body_img_1.jpg","Forename":"MediumTurquoise1088020","Surname":"MediumPurple","Age":66,"IsDangerous":false,"Tags":["Alzheimer's","Missing"],"Status":"Returned"},{"UserID":"383A363D3C363C3A343B","Latitude":53.50245,"Longitude":-2.258526,"LastSeen":"2016-08-28T01:41:00","ProfileURL":"http://jtf.org/wp-content/uploads/2015/08/hillary-clinton-laughing.jpg","Forename":"FloralWhite1001186","Surname":"MediumAquamarine","Age":16,"IsDangerous":false,"Tags":["Missing"],"Status":"Returned"},{"UserID":"383A363B3B36333A333A","Latitude":53.39238,"Longitude":-2.072473,"LastSeen":"2015-03-05T21:40:00","ProfileURL":"http://img.wonkette.com/wp-content/uploads/2016/08/nbc-fires-donald-trump-after-he-calls-mexicans-rapists-and-drug-runners.jpg","Forename":"Sienna1063479","Surname":"RebeccaPurple","Age":14,"IsDangerous":false,"Tags":["Missing"],"Status":"Returned"},{"UserID":"383A363D41363B3A393B","Latitude":53.51496,"Longitude":-2.222555,"LastSeen":"2016-08-09T23:06:00","ProfileURL":"http://static4.businessinsider.com/image/55fad9869dd7cc15008bb1ba-480/hillary-clinton-thumbs-up.jpg","Forename":"Silver1012097","Surname":"OrangeRed","Age":37,"IsDangerous":false,"Tags":["Missing"],"Status":"Returned"},{"UserID":"383A373B4136373A393A","Latitude":53.50178,"Longitude":-2.286491,"LastSeen":"2014-12-10T17:38:00","ProfileURL":"http://static4.businessinsider.com/image/56c640526e97c625048b822a-480/donald-trump.jpg","Forename":"Orchid1050018","Surname":"MediumSpringGreen","Age":13,"IsDangerous":true,"Tags":["Missing"],"Status":"Returned"},{"UserID":"383A363C3F36393A373A","Latitude":53.51238,"Longitude":-2.403021,"LastSeen":"2015-11-02T14:30:00","ProfileURL":"http://i2.cdn.turner.com/cnnnext/dam/assets/150827102252-donald-trump-july-10-2015-super-169.jpg","Forename":"YellowGreen1051201","Surname":"DarkGoldenrod","Age":71,"IsDangerous":false,"Tags":["Alzheimer's","Missing"],"Status":"Returned"},{"UserID":"383A363B3F363B3A3739","Latitude":53.51307,"Longitude":-2.239768,"LastSeen":"2014-02-26T18:45:00","ProfileURL":"http://twt-thumbs.washtimes.com/media/image/2015/12/08/DEM_2016_Clinton.JPEG-09fe7_c0-174-2166-1436_s885x516.jpg?9867f27f8024a954e67a9f6c533524dcb1e43d0d","Forename":"GhostWhite1012475","Surname":"IndianRed","Age":45,"IsDangerous":false,"Tags":["Missing"],"Status":"Returned"},{"UserID":"383A353C3C36343A343B","Latitude":53.47803,"Longitude":-2.378811,"LastSeen":"2015-11-13T12:39:00","ProfileURL":"https://mises.org/sites/default/files/23158392405_d3e3b60cb8_o.jpg","Forename":"BlueViolet1080561","Surname":"MediumSpringGreen","Age":15,"IsDangerous":true,"Tags":["Missing"],"Status":"Returned"},{"UserID":"383A353D3C36373A343B","Latitude":53.47363,"Longitude":-2.362032,"LastSeen":"2016-02-09T09:57:00","ProfileURL":"https://assets.donaldjtrump.com/site/about_body_img_1.jpg","Forename":"BurlyWood1050282","Surname":"Maroon","Age":15,"IsDangerous":true,"Tags":["Missing"],"Status":"Returned"},{"UserID":"383A363A4236383A3A39","Latitude":53.56264,"Longitude":-2.316693,"LastSeen":"2013-10-13T17:55:00","ProfileURL":"http://img.wonkette.com/wp-content/uploads/2016/08/nbc-fires-donald-trump-after-he-calls-mexicans-rapists-and-drug-runners.jpg","Forename":"DarkTurquoise1005282","Surname":"Snow","Age":6,"IsDangerous":false,"Tags":["Missing"],"Status":"Returned"},{"UserID":"383A363C4036333A383B","Latitude":53.51825,"Longitude":-2.23215,"LastSeen":"2015-03-12T05:15:00","ProfileURL":"http://static4.businessinsider.com/image/56c640526e97c625048b822a-480/donald-trump.jpg","Forename":"LightSeaGreen1058332","Surname":"Orange","Age":44,"IsDangerous":true,"Tags":["Missing"],"Status":"Returned"},{"UserID":"383A363B3C36343A343A","Latitude":53.49821,"Longitude":-2.072955,"LastSeen":"2016-02-10T19:52:00","ProfileURL":"http://i2.cdn.turner.com/cnnnext/dam/assets/150827102252-donald-trump-july-10-2015-super-169.jpg","Forename":"Salmon1055007","Surname":"Wheat","Age":11,"IsDangerous":true,"Tags":["Missing"],"Status":"Returned"},{"UserID":"383A363C3D36383A353A","Latitude":53.39202,"Longitude":-2.291558,"LastSeen":"2015-05-30T08:08:00","ProfileURL":"http://jtf.org/wp-content/uploads/2015/08/hillary-clinton-laughing.jpg","Forename":"Cyan1063395","Surname":"DarkSlateBlue","Age":27,"IsDangerous":true,"Tags":["Missing"],"Status":"Returned"},{"UserID":"383A363C3A36333A323B","Latitude":53.55303,"Longitude":-2.12122,"LastSeen":"2015-08-14T07:30:00","ProfileURL":"http://static4.businessinsider.com/image/55fad9869dd7cc15008bb1ba-480/hillary-clinton-thumbs-up.jpg","Forename":"WhiteSmoke1025937","Surname":"Coral","Age":59,"IsDangerous":false,"Tags":["Missing"],"Status":"Returned"},{"UserID":"383A363C3D36333A353B","Latitude":53.52023,"Longitude":-2.604955,"LastSeen":"2015-08-29T00:10:00","ProfileURL":"http://twt-thumbs.washtimes.com/media/image/2015/12/08/DEM_2016_Clinton.JPEG-09fe7_c0-174-2166-1436_s885x516.jpg?9867f27f8024a954e67a9f6c533524dcb1e43d0d","Forename":"DeepPink1002166","Surname":"LavenderBlush","Age":17,"IsDangerous":false,"Tags":["Missing"],"Status":"Returned"},{"UserID":"383A353C3F363C3A373A","Latitude":53.39977,"Longitude":-2.13945,"LastSeen":"2015-07-22T01:22:00","ProfileURL":"https://assets.donaldjtrump.com/site/about_body_img_1.jpg","Forename":"Cornsilk1033287","Surname":"Goldenrod","Age":30,"IsDangerous":true,"Tags":["Missing"],"Status":"Returned"},{"UserID":"383A363C3936343A313B","Latitude":53.47337,"Longitude":-2.26742,"LastSeen":"2016-02-21T02:44:00","ProfileURL":"http://img.wonkette.com/wp-content/uploads/2016/08/nbc-fires-donald-trump-after-he-calls-mexicans-rapists-and-drug-runners.jpg","Forename":"Linen1071379","Surname":"CadetBlue","Age":54,"IsDangerous":false,"Tags":["Missing"],"Status":"Returned"},{"UserID":"383A363B4136333A393A","Latitude":53.55984,"Longitude":-2.197274,"LastSeen":"2014-11-12T09:06:00","ProfileURL":"http://static4.businessinsider.com/image/56c640526e97c625048b822a-480/donald-trump.jpg","Forename":"Olive1010759","Surname":"PowderBlue","Age":17,"IsDangerous":true,"Tags":["Missing"],"Status":"Returned"},{"UserID":"383A363B4136363A393A","Latitude":53.58755,"Longitude":-2.433953,"LastSeen":"2014-10-25T11:00:00","ProfileURL":"http://i2.cdn.turner.com/cnnnext/dam/assets/150827102252-donald-trump-july-10-2015-super-169.jpg","Forename":"DeepSkyBlue1000198","Surname":"DeepPink","Age":16,"IsDangerous":false,"Tags":["Missing"],"Status":"Returned"},{"UserID":"383A363B4036333A383A","Latitude":53.55303,"Longitude":-2.12122,"LastSeen":"2015-04-20T20:30:00","ProfileURL":"https://mises.org/sites/default/files/23158392405_d3e3b60cb8_o.jpg","Forename":"Azure1068286","Surname":"Goldenrod","Age":42,"IsDangerous":false,"Tags":["Missing"],"Status":"Returned"},{"UserID":"383A363C3D363B3A353A","Latitude":53.51183,"Longitude":-2.178456,"LastSeen":"2015-06-03T13:08:00","ProfileURL":"https://assets.donaldjtrump.com/site/about_body_img_1.jpg","Forename":"Goldenrod1036923","Surname":"MediumAquamarine","Age":18,"IsDangerous":false,"Tags":["Missing"],"Status":"Returned"},{"UserID":"383A373A39363A3A3139","Latitude":53.48066,"Longitude":-2.373138,"LastSeen":"2013-12-07T10:30:00","ProfileURL":"http://img.wonkette.com/wp-content/uploads/2016/08/nbc-fires-donald-trump-after-he-calls-mexicans-rapists-and-drug-runners.jpg","Forename":"Peru1016726","Surname":"DarkKhaki","Age":46,"IsDangerous":true,"Tags":["Missing"],"Status":"Returned"},{"UserID":"383A363D3C363B3A343B","Latitude":53.51367,"Longitude":-2.227435,"LastSeen":"2016-07-21T11:22:00","ProfileURL":"http://static4.businessinsider.com/image/56c640526e97c625048b822a-480/donald-trump.jpg","Forename":"YellowGreen1075499","Surname":"DarkMagenta","Age":78,"IsDangerous":true,"Tags":["Alzheimer's","Missing"],"Status":"Returned"},{"UserID":"383A373B3A36373A323A","Latitude":53.45142,"Longitude":-2.213262,"LastSeen":"2014-11-08T12:54:00","ProfileURL":"http://i2.cdn.turner.com/cnnnext/dam/assets/150827102252-donald-trump-july-10-2015-super-169.jpg","Forename":"SkyBlue1085652","Surname":"Olive","Age":41,"IsDangerous":false,"Tags":["Missing"],"Status":"Returned"},{"UserID":"383A373B3D363C3A3539","Latitude":53.50696,"Longitude":-2.451014,"LastSeen":"2015-08-27T23:44:00","ProfileURL":"https://assets.donaldjtrump.com/site/about_body_img_1.jpg","Forename":"Linen1066925","Surname":"BlueViolet","Age":19,"IsDangerous":false,"Tags":["Missing"],"Status":"Returned"},{"UserID":"383A363B41363A3A3939","Latitude":53.49283,"Longitude":-2.070066,"LastSeen":"2014-01-17T12:20:00","ProfileURL":"http://img.wonkette.com/wp-content/uploads/2016/08/nbc-fires-donald-trump-after-he-calls-mexicans-rapists-and-drug-runners.jpg","Forename":"Fuchsia1031750","Surname":"Cyan","Age":39,"IsDangerous":false,"Tags":["Missing"],"Status":"Returned"},{"UserID":"383A363A3C36393A3439","Latitude":53.38835,"Longitude":-2.117443,"LastSeen":"2014-07-17T08:00:00","ProfileURL":"http://jtf.org/wp-content/uploads/2015/08/hillary-clinton-laughing.jpg","Forename":"DarkGreen1011525","Surname":"MediumBlue","Age":17,"IsDangerous":false,"Tags":["Missing"],"Status":"Returned"},{"UserID":"383A363B3E363A3A3639","Latitude":53.50799,"Longitude":-2.152261,"LastSeen":"2014-01-01T05:04:00","ProfileURL":"http://static4.businessinsider.com/image/55fad9869dd7cc15008bb1ba-480/hillary-clinton-thumbs-up.jpg","Forename":"CadetBlue1039790","Surname":"FloralWhite","Age":21,"IsDangerous":true,"Tags":["Missing"],"Status":"Returned"},{"UserID":"383A363B40363A3A3839","Latitude":53.53985,"Longitude":-2.100628,"LastSeen":"2014-01-12T18:02:00","ProfileURL":"http://static4.businessinsider.com/image/56c640526e97c625048b822a-480/donald-trump.jpg","Forename":"LightSlateGray1065022","Surname":"Red","Age":80,"IsDangerous":true,"Tags":["Alzheimer's","Missing"],"Status":"Returned"},{"UserID":"383A373B3F36343A373A","Latitude":53.42822,"Longitude":-2.230034,"LastSeen":"2015-05-11T15:00:00","ProfileURL":"http://i2.cdn.turner.com/cnnnext/dam/assets/150827102252-donald-trump-july-10-2015-super-169.jpg","Forename":"SpringGreen1063522","Surname":"Silver","Age":19,"IsDangerous":false,"Tags":["Missing"],"Status":"Returned"},{"UserID":"383A363D3F363B3A373B","Latitude":53.55303,"Longitude":-2.12122,"LastSeen":"2016-08-01T17:31:00","ProfileURL":"https://assets.donaldjtrump.com/site/about_body_img_1.jpg","Forename":"DarkSalmon1016550","Surname":"LightGreen","Age":44,"IsDangerous":true,"Tags":["Missing"],"Status":"Returned"},{"UserID":"383A353D3C36383A343B","Latitude":53.54154,"Longitude":-2.674879,"LastSeen":"2016-03-21T17:30:00","ProfileURL":"http://img.wonkette.com/wp-content/uploads/2016/08/nbc-fires-donald-trump-after-he-calls-mexicans-rapists-and-drug-runners.jpg","Forename":"AliceBlue1042613","Surname":"SkyBlue","Age":10,"IsDangerous":false,"Tags":["Missing"],"Status":"Returned"},{"UserID":"383A363B3C363C3A3439","Latitude":53.60139,"Longitude":-2.382921,"LastSeen":"2016-08-04T22:15:00","ProfileURL":"http://twt-thumbs.washtimes.com/media/image/2015/12/08/DEM_2016_Clinton.JPEG-09fe7_c0-174-2166-1436_s885x516.jpg?9867f27f8024a954e67a9f6c533524dcb1e43d0d","Forename":"Khaki1000607","Surname":"LightCyan","Age":16,"IsDangerous":false,"Tags":["Missing"],"Status":"Returned"},{"UserID":"383A353C3C36333A343B","Latitude":53.55262,"Longitude":-2.181828,"LastSeen":"2015-08-23T08:54:00","ProfileURL":"http://static4.businessinsider.com/image/56c640526e97c625048b822a-480/donald-trump.jpg","Forename":"Lavender1008246","Surname":"LightGreen","Age":15,"IsDangerous":false,"Tags":["Missing"],"Status":"Returned"},{"UserID":"383A353A3E36383A3639","Latitude":53.54176,"Longitude":-2.517215,"LastSeen":"2013-09-25T20:00:00","ProfileURL":"http://i2.cdn.turner.com/cnnnext/dam/assets/150827102252-donald-trump-july-10-2015-super-169.jpg","Forename":"OldLace1012639","Surname":"OliveDrab","Age":40,"IsDangerous":false,"Tags":["Missing"],"Status":"Returned"},{"UserID":"383A373B3A36363A323A","Latitude":53.57841,"Longitude":-2.432062,"LastSeen":"2016-01-21T07:50:00","ProfileURL":"https://assets.donaldjtrump.com/site/about_body_img_1.jpg","Forename":"FloralWhite1075230","Surname":"DarkSlateBlue","Age":11,"IsDangerous":false,"Tags":["Missing"],"Status":"Returned"},{"UserID":"383A363A4036393A3839","Latitude":53.54618,"Longitude":-2.63192,"LastSeen":"2013-11-23T11:15:00","ProfileURL":"http://img.wonkette.com/wp-content/uploads/2016/08/nbc-fires-donald-trump-after-he-calls-mexicans-rapists-and-drug-runners.jpg","Forename":"HoneyDew1069947","Surname":"Yellow","Age":10,"IsDangerous":false,"Tags":["Missing"],"Status":"Returned"},{"UserID":"383A373A3B363A3A3339","Latitude":53.53831,"Longitude":-2.145851,"LastSeen":"2013-12-17T09:53:00","ProfileURL":"https://mises.org/sites/default/files/23158392405_d3e3b60cb8_o.jpg","Forename":"Violet1058232","Surname":"FireBrick","Age":44,"IsDangerous":false,"Tags":["Missing"],"Status":"Returned"},{"UserID":"383A363C3F363A3A373A","Latitude":53.40077,"Longitude":-2.143756,"LastSeen":"2015-04-27T22:20:00","ProfileURL":"http://static4.businessinsider.com/image/56c640526e97c625048b822a-480/donald-trump.jpg","Forename":"GhostWhite1045691","Surname":"MediumSpringGreen","Age":38,"IsDangerous":true,"Tags":["Missing"],"Status":"Returned"},{"UserID":"383A353C3B363B3A333A","Latitude":53.555,"Longitude":-2.223565,"LastSeen":"2015-05-22T23:30:00","ProfileURL":"http://i2.cdn.turner.com/cnnnext/dam/assets/150827102252-donald-trump-july-10-2015-super-169.jpg","Forename":"Black1029912","Surname":"AliceBlue","Age":48,"IsDangerous":true,"Tags":["Missing"],"Status":"Returned"},{"UserID":"383A353C4136383A393A","Latitude":53.55485,"Longitude":-2.425194,"LastSeen":"2015-03-15T00:10:00","ProfileURL":"http://jtf.org/wp-content/uploads/2015/08/hillary-clinton-laughing.jpg","Forename":"DarkSalmon1030305","Surname":"Peru","Age":46,"IsDangerous":false,"Tags":["Missing"],"Status":"Returned"},{"UserID":"383A363C4136343A393B","Latitude":53.55642,"Longitude":-2.62857,"LastSeen":"2015-10-25T19:57:00","ProfileURL":"https://assets.donaldjtrump.com/site/about_body_img_1.jpg","Forename":"LightGreen1038612","Surname":"GreenYellow","Age":55,"IsDangerous":true,"Tags":["Missing"],"Status":"Returned"},{"UserID":"383A363D3B363C3A333B","Latitude":53.46584,"Longitude":-2.228761,"LastSeen":"2016-08-25T05:20:00","ProfileURL":"http://img.wonkette.com/wp-content/uploads/2016/08/nbc-fires-donald-trump-after-he-calls-mexicans-rapists-and-drug-runners.jpg","Forename":"PapayaWhip1048485","Surname":"Thistle","Age":19,"IsDangerous":false,"Tags":["Missing"],"Status":"Returned"},{"UserID":"383A363C41363A3A393A","Latitude":53.51533,"Longitude":-2.134309,"LastSeen":"2015-05-06T12:11:00","ProfileURL":"http://static4.businessinsider.com/image/55fad9869dd7cc15008bb1ba-480/hillary-clinton-thumbs-up.jpg","Forename":"Crimson1044971","Surname":"Orange","Age":16,"IsDangerous":false,"Tags":["Missing"],"Status":"Returned"},{"UserID":"383A353D3A36393A323B","Latitude":53.55532,"Longitude":-2.2928,"LastSeen":"2016-04-17T00:00:00","ProfileURL":"http://static4.businessinsider.com/image/56c640526e97c625048b822a-480/donald-trump.jpg","Forename":"Blue1047402","Surname":"DarkTurquoise","Age":44,"IsDangerous":true,"Tags":["Missing"],"Status":"Returned"},{"UserID":"383A363B39363B3A3139","Latitude":53.51534,"Longitude":-2.23954,"LastSeen":"2015-08-10T23:25:00","ProfileURL":"http://i2.cdn.turner.com/cnnnext/dam/assets/150827102252-donald-trump-july-10-2015-super-169.jpg","Forename":"DarkKhaki1060324","Surname":"ForestGreen","Age":16,"IsDangerous":true,"Tags":["Missing"],"Status":"Returned"},{"UserID":"383A353D3F363A3A373B","Latitude":53.4792,"Longitude":-2.237046,"LastSeen":"2016-06-24T05:53:00","ProfileURL":"http://twt-thumbs.washtimes.com/media/image/2015/12/08/DEM_2016_Clinton.JPEG-09fe7_c0-174-2166-1436_s885x516.jpg?9867f27f8024a954e67a9f6c533524dcb1e43d0d","Forename":"Aqua1080715","Surname":"LawnGreen","Age":23,"IsDangerous":true,"Tags":["Missing"],"Status":"Returned"},{"UserID":"383A353C41363A3A393A","Latitude":53.58385,"Longitude":-2.399939,"LastSeen":"2015-05-05T22:15:00","ProfileURL":"https://assets.donaldjtrump.com/site/about_body_img_1.jpg","Forename":"LemonChiffon1063059","Surname":"Moccasin","Age":14,"IsDangerous":true,"Tags":["Missing"],"Status":"Returned"},{"UserID":"383A353D3C363A3A343B","Latitude":53.43193,"Longitude":-2.149882,"LastSeen":"2016-06-10T18:00:00","ProfileURL":"https://mises.org/sites/default/files/23158392405_d3e3b60cb8_o.jpg","Forename":"PaleVioletRed1001497","Surname":"Yellow","Age":46,"IsDangerous":true,"Tags":["Missing"],"Status":"Returned"},{"UserID":"383A363D3936373A313B","Latitude":53.51766,"Longitude":-2.228723,"LastSeen":"2016-01-26T20:30:00","ProfileURL":"http://img.wonkette.com/wp-content/uploads/2016/08/nbc-fires-donald-trump-after-he-calls-mexicans-rapists-and-drug-runners.jpg","Forename":"HoneyDew1080374","Surname":"BlanchedAlmond","Age":42,"IsDangerous":false,"Tags":["Missing"],"Status":"Returned"},{"UserID":"383A363C3E36383A363A","Latitude":53.4856,"Longitude":-2.160787,"LastSeen":"2015-01-15T20:00:00","ProfileURL":"http://static4.businessinsider.com/image/56c640526e97c625048b822a-480/donald-trump.jpg","Forename":"YellowGreen1076255","Surname":"OrangeRed","Age":20,"IsDangerous":false,"Tags":["Missing"],"Status":"Returned"},{"UserID":"383A353D3D36393A353B","Latitude":53.45291,"Longitude":-2.090076,"LastSeen":"2016-05-23T20:17:00","ProfileURL":"http://i2.cdn.turner.com/cnnnext/dam/assets/150827102252-donald-trump-july-10-2015-super-169.jpg","Forename":"MintCream1018767","Surname":"Violet","Age":14,"IsDangerous":false,"Tags":["Missing"],"Status":"Returned"},{"UserID":"383A363D41363A3A393B","Latitude":53.50261,"Longitude":-2.078375,"LastSeen":"2016-07-01T12:52:00","ProfileURL":"http://jtf.org/wp-content/uploads/2015/08/hillary-clinton-laughing.jpg","Forename":"SlateBlue1029460","Surname":"Thistle","Age":46,"IsDangerous":false,"Tags":["Missing"],"Status":"Returned"},{"UserID":"383A353D39363A3A313B","Latitude":53.45587,"Longitude":-2.342557,"LastSeen":"2016-06-01T20:30:00","ProfileURL":"http://static4.businessinsider.com/image/55fad9869dd7cc15008bb1ba-480/hillary-clinton-thumbs-up.jpg","Forename":"MidnightBlue1011015","Surname":"Bisque","Age":24,"IsDangerous":false,"Tags":["Missing"],"Status":"Returned"},{"UserID":"383A373B4236343A3A3A","Latitude":53.55485,"Longitude":-2.425194,"LastSeen":"2014-07-27T15:14:00","ProfileURL":"http://twt-thumbs.washtimes.com/media/image/2015/12/08/DEM_2016_Clinton.JPEG-09fe7_c0-174-2166-1436_s885x516.jpg?9867f27f8024a954e67a9f6c533524dcb1e43d0d","Forename":"IndianRed1055876","Surname":"Tomato","Age":61,"IsDangerous":false,"Tags":["Alzheimer's","Missing"],"Status":"Returned"},{"UserID":"383A363C3F36333A373B","Latitude":53.39496,"Longitude":-2.228877,"LastSeen":"2015-09-05T23:45:00","ProfileURL":"https://mises.org/sites/default/files/23158392405_d3e3b60cb8_o.jpg","Forename":"Maroon1083496","Surname":"LightGoldenrodYellow","Age":34,"IsDangerous":false,"Tags":["Missing"],"Status":"Returned"},{"UserID":"383A363D3D363C3A353B","Latitude":53.47883,"Longitude":-2.597298,"LastSeen":"2016-08-31T20:09:00","ProfileURL":"https://assets.donaldjtrump.com/site/about_body_img_1.jpg","Forename":"Beige1022133","Surname":"AliceBlue","Age":36,"IsDangerous":false,"Tags":["Missing"],"Status":"Returned"},{"UserID":"383A363D3D363A3A353B","Latitude":53.45158,"Longitude":-2.2426,"LastSeen":"2016-06-10T15:20:00","ProfileURL":"http://img.wonkette.com/wp-content/uploads/2016/08/nbc-fires-donald-trump-after-he-calls-mexicans-rapists-and-drug-runners.jpg","Forename":"DarkSalmon1040013","Surname":"White","Age":48,"IsDangerous":true,"Tags":["Missing"],"Status":"Returned"},{"UserID":"383A373B4136333A393A","Latitude":53.46538,"Longitude":-2.249879,"LastSeen":"2014-06-07T05:30:00","ProfileURL":"http://static4.businessinsider.com/image/56c640526e97c625048b822a-480/donald-trump.jpg","Forename":"DeepPink1051960","Surname":"Thistle","Age":32,"IsDangerous":false,"Tags":["Missing"],"Status":"Returned"},{"UserID":"383A363A4136383A3939","Latitude":53.38095,"Longitude":-2.212128,"LastSeen":"2013-10-09T10:01:00","ProfileURL":"http://i2.cdn.turner.com/cnnnext/dam/assets/150827102252-donald-trump-july-10-2015-super-169.jpg","Forename":"Bisque1001645","Surname":"Magenta","Age":16,"IsDangerous":false,"Tags":["Missing"],"Status":"Returned"},{"UserID":"383A353D3F36393A373B","Latitude":53.54351,"Longitude":-2.62281,"LastSeen":"2016-08-20T20:30:00","ProfileURL":"https://assets.donaldjtrump.com/site/about_body_img_1.jpg","Forename":"Cornsilk1019670","Surname":"SeaShell","Age":17,"IsDangerous":false,"Tags":["Missing"],"Status":"Returned"},{"UserID":"383A363C3C36353A343B","Latitude":53.5027,"Longitude":-2.063041,"LastSeen":"2015-12-17T16:30:00","ProfileURL":"http://jtf.org/wp-content/uploads/2015/08/hillary-clinton-laughing.jpg","Forename":"Cornsilk1055497","Surname":"SandyBrown","Age":18,"IsDangerous":false,"Tags":["Missing"],"Status":"Returned"},{"UserID":"383A363B4036343A383A","Latitude":53.55107,"Longitude":-2.674774,"LastSeen":"2014-07-18T02:13:00","ProfileURL":"http://img.wonkette.com/wp-content/uploads/2016/08/nbc-fires-donald-trump-after-he-calls-mexicans-rapists-and-drug-runners.jpg","Forename":"RebeccaPurple1006951","Surname":"MidnightBlue","Age":17,"IsDangerous":false,"Tags":["Missing"],"Status":"Returned"},{"UserID":"383A353D4236383A3A3B","Latitude":53.51288,"Longitude":-2.157286,"LastSeen":"2016-04-14T08:00:00","ProfileURL":"http://static4.businessinsider.com/image/56c640526e97c625048b822a-480/donald-trump.jpg","Forename":"RebeccaPurple1050784","Surname":"DarkBlue","Age":24,"IsDangerous":true,"Tags":["Missing"],"Status":"Returned"},{"UserID":"383A363C39363A3A313A","Latitude":53.47648,"Longitude":-2.35648,"LastSeen":"2015-03-30T22:45:00","ProfileURL":"http://i2.cdn.turner.com/cnnnext/dam/assets/150827102252-donald-trump-july-10-2015-super-169.jpg","Forename":"Orchid1030694","Surname":"Blue","Age":40,"IsDangerous":false,"Tags":["Missing"],"Status":"Returned"},{"UserID":"383A363A3B363A3A3339","Latitude":53.59269,"Longitude":-2.537555,"LastSeen":"2013-12-31T18:30:00","ProfileURL":"http://static4.businessinsider.com/image/55fad9869dd7cc15008bb1ba-480/hillary-clinton-thumbs-up.jpg","Forename":"Turquoise1084691","Surname":"DarkBlue","Age":20,"IsDangerous":true,"Tags":["Missing"],"Status":"Returned"},{"UserID":"383A353D3E36393A363B","Latitude":53.63416,"Longitude":-2.154772,"LastSeen":"2016-05-12T19:33:00","ProfileURL":"http://twt-thumbs.washtimes.com/media/image/2015/12/08/DEM_2016_Clinton.JPEG-09fe7_c0-174-2166-1436_s885x516.jpg?9867f27f8024a954e67a9f6c533524dcb1e43d0d","Forename":"LightSteelBlue1068857","Surname":"Maroon","Age":7,"IsDangerous":true,"Tags":["Missing"],"Status":"Returned"},{"UserID":"383A363C3A36353A323B","Latitude":53.60042,"Longitude":-2.139808,"LastSeen":"2016-01-16T18:33:00","ProfileURL":"https://assets.donaldjtrump.com/site/about_body_img_1.jpg","Forename":"Indigo1008654","Surname":"LightBlue","Age":17,"IsDangerous":true,"Tags":["Missing"],"Status":"Returned"},{"UserID":"383A353C3F36343A373B","Latitude":53.60282,"Longitude":-2.137292,"LastSeen":"2015-10-17T18:48:00","ProfileURL":"https://mises.org/sites/default/files/23158392405_d3e3b60cb8_o.jpg","Forename":"LightYellow1025194","Surname":"MediumOrchid","Age":10,"IsDangerous":false,"Tags":["Missing"],"Status":"Returned"},{"UserID":"383A373B4136343A393A","Latitude":53.54979,"Longitude":-2.139219,"LastSeen":"2014-07-24T14:00:00","ProfileURL":"http://jtf.org/wp-content/uploads/2015/08/hillary-clinton-laughing.jpg","Forename":"LightYellow1027931","Surname":"GhostWhite","Age":16,"IsDangerous":true,"Tags":["Missing"],"Status":"Returned"},{"UserID":"383A353A3E36393A3639","Latitude":53.55485,"Longitude":-2.425194,"LastSeen":"2013-11-12T21:30:00","ProfileURL":"http://img.wonkette.com/wp-content/uploads/2016/08/nbc-fires-donald-trump-after-he-calls-mexicans-rapists-and-drug-runners.jpg","Forename":"DarkViolet1013082","Surname":"MediumPurple","Age":52,"IsDangerous":false,"Tags":["Missing"],"Status":"Returned"},{"UserID":"383A363D3D36363A353B","Latitude":53.47644,"Longitude":-2.246072,"LastSeen":"2016-01-01T06:29:00","ProfileURL":"http://static4.businessinsider.com/image/55fad9869dd7cc15008bb1ba-480/hillary-clinton-thumbs-up.jpg","Forename":"Azure1022551","Surname":"Chocolate","Age":18,"IsDangerous":false,"Tags":["Missing"],"Status":"Returned"},{"UserID":"383A363B4236363A3A3A","Latitude":53.59935,"Longitude":-2.28168,"LastSeen":"2014-10-30T13:33:00","ProfileURL":"http://twt-thumbs.washtimes.com/media/image/2015/12/08/DEM_2016_Clinton.JPEG-09fe7_c0-174-2166-1436_s885x516.jpg?9867f27f8024a954e67a9f6c533524dcb1e43d0d","Forename":"FireBrick1075097","Surname":"LightSeaGreen","Age":49,"IsDangerous":true,"Tags":["Missing"],"Status":"Returned"},{"UserID":"383A363C41363B3A393A","Latitude":53.50923,"Longitude":-2.525777,"LastSeen":"2015-12-11T21:00:00","ProfileURL":"http://static4.businessinsider.com/image/56c640526e97c625048b822a-480/donald-trump.jpg","Forename":"MediumAquamarine1021067","Surname":"LightSalmon","Age":18,"IsDangerous":false,"Tags":["Missing"],"Status":"Returned"},{"UserID":"383A363C3936353A313B","Latitude":53.45662,"Longitude":-2.233862,"LastSeen":"2016-05-26T21:56:00","ProfileURL":"http://i2.cdn.turner.com/cnnnext/dam/assets/150827102252-donald-trump-july-10-2015-super-169.jpg","Forename":"DodgerBlue1080421","Surname":"DarkSlateGray","Age":30,"IsDangerous":false,"Tags":["Missing"],"Status":"Returned"},{"UserID":"383A363A3C36383A3439","Latitude":53.39046,"Longitude":-2.192761,"LastSeen":"2013-09-16T22:00:00","ProfileURL":"https://mises.org/sites/default/files/23158392405_d3e3b60cb8_o.jpg","Forename":"Crimson1021911","Surname":"Orchid","Age":18,"IsDangerous":false,"Tags":["Missing"],"Status":"Returned"},{"UserID":"383A363C3D363C3A353A","Latitude":53.44657,"Longitude":-2.290908,"LastSeen":"2015-07-14T11:35:00","ProfileURL":"https://assets.donaldjtrump.com/site/about_body_img_1.jpg","Forename":"MediumTurquoise1013133","Surname":"Orange","Age":12,"IsDangerous":true,"Tags":["Missing"],"Status":"Returned"},{"UserID":"383A353A39363A3A3139","Latitude":53.42865,"Longitude":-2.175895,"LastSeen":"2013-12-07T12:39:00","ProfileURL":"http://img.wonkette.com/wp-content/uploads/2016/08/nbc-fires-donald-trump-after-he-calls-mexicans-rapists-and-drug-runners.jpg","Forename":"Magenta1025217","Surname":"DarkSalmon","Age":12,"IsDangerous":false,"Tags":["Missing"],"Status":"Returned"},{"UserID":"383A353A3A363A3A3239","Latitude":53.54896,"Longitude":-2.13031,"LastSeen":"2013-12-11T20:00:00","ProfileURL":"http://static4.businessinsider.com/image/56c640526e97c625048b822a-480/donald-trump.jpg","Forename":"Teal1005434","Surname":"GhostWhite","Age":0,"IsDangerous":false,"Tags":["Missing"],"Status":"Returned"},{"UserID":"383A363A3A36383A3239","Latitude":53.53284,"Longitude":-2.136356,"LastSeen":"2016-06-23T21:30:00","ProfileURL":"http://i2.cdn.turner.com/cnnnext/dam/assets/150827102252-donald-trump-july-10-2015-super-169.jpg","Forename":"Turquoise1077352","Surname":"HotPink","Age":18,"IsDangerous":false,"Tags":["Missing"],"Status":"Returned"},{"UserID":"383A373B3F363B3A3739","Latitude":53.55671,"Longitude":-2.116263,"LastSeen":"2015-02-18T23:52:00","ProfileURL":"https://assets.donaldjtrump.com/site/about_body_img_1.jpg","Forename":"OrangeRed1060754","Surname":"Coral","Age":40,"IsDangerous":false,"Tags":["Missing"],"Status":"Returned"},{"UserID":"383A363B3B363B3A3339","Latitude":53.55303,"Longitude":-2.12122,"LastSeen":"2014-02-21T12:45:00","ProfileURL":"http://img.wonkette.com/wp-content/uploads/2016/08/nbc-fires-donald-trump-after-he-calls-mexicans-rapists-and-drug-runners.jpg","Forename":"FireBrick1028836","Surname":"PaleVioletRed","Age":33,"IsDangerous":false,"Tags":["Missing"],"Status":"Returned"},{"UserID":"383A363B41363C3A3939","Latitude":53.46584,"Longitude":-2.228761,"LastSeen":"2014-04-26T03:15:00","ProfileURL":"http://static4.businessinsider.com/image/56c640526e97c625048b822a-480/donald-trump.jpg","Forename":"LightSkyBlue1017210","Surname":"DarkRed","Age":23,"IsDangerous":true,"Tags":["Missing"],"Status":"Returned"},{"UserID":"383A353C4036333A383B","Latitude":53.51224,"Longitude":-2.193886,"LastSeen":"2015-09-11T08:00:00","ProfileURL":"http://i2.cdn.turner.com/cnnnext/dam/assets/150827102252-donald-trump-july-10-2015-super-169.jpg","Forename":"HoneyDew1039498","Surname":"LightCyan","Age":18,"IsDangerous":false,"Tags":["Missing"],"Status":"Returned"},{"UserID":"383A363A4236393A3A39","Latitude":53.52664,"Longitude":-2.248806,"LastSeen":"2013-12-02T11:23:00","ProfileURL":"https://assets.donaldjtrump.com/site/about_body_img_1.jpg","Forename":"MediumTurquoise1068579","Surname":"YellowGreen","Age":24,"IsDangerous":false,"Tags":["Missing"],"Status":"Returned"},{"UserID":"383A363D3F36373A373B","Latitude":53.49609,"Longitude":-2.17646,"LastSeen":"2016-02-21T11:00:00","ProfileURL":"http://img.wonkette.com/wp-content/uploads/2016/08/nbc-fires-donald-trump-after-he-calls-mexicans-rapists-and-drug-runners.jpg","Forename":"AntiqueWhite1036108","Surname":"DarkRed","Age":25,"IsDangerous":false,"Tags":["Missing"],"Status":"Returned"},{"UserID":"383A373B3E363A3A3639","Latitude":53.49283,"Longitude":-2.070066,"LastSeen":"2014-01-01T14:30:00","ProfileURL":"http://static4.businessinsider.com/image/56c640526e97c625048b822a-480/donald-trump.jpg","Forename":"SkyBlue1035679","Surname":"CornflowerBlue","Age":20,"IsDangerous":false,"Tags":["Missing"],"Status":"Returned"},{"UserID":"383A353D39363B3A313B","Latitude":53.51966,"Longitude":-2.221177,"LastSeen":"2016-07-09T00:01:00","ProfileURL":"http://jtf.org/wp-content/uploads/2015/08/hillary-clinton-laughing.jpg","Forename":"Peru1009507","Surname":"LightBlue","Age":14,"IsDangerous":false,"Tags":["Missing"],"Status":"Returned"},{"UserID":"383A353D3C363C3A343B","Latitude":53.40013,"Longitude":-2.022908,"LastSeen":"2016-08-27T22:07:00","ProfileURL":"http://i2.cdn.turner.com/cnnnext/dam/assets/150827102252-donald-trump-july-10-2015-super-169.jpg","Forename":"DarkGray1025028","Surname":"Lavender","Age":47,"IsDangerous":false,"Tags":["Missing"],"Status":"Returned"},{"UserID":"383A363D3F36363A373B","Latitude":53.5883,"Longitude":-2.526727,"LastSeen":"2016-01-09T17:15:00","ProfileURL":"https://assets.donaldjtrump.com/site/about_body_img_1.jpg","Forename":"Teal1081868","Surname":"Chocolate","Age":33,"IsDangerous":false,"Tags":["Missing"],"Status":"Returned"},{"UserID":"383A363B3E36363A363A","Latitude":53.52052,"Longitude":-2.171116,"LastSeen":"2014-10-12T15:54:00","ProfileURL":"http://static4.businessinsider.com/image/55fad9869dd7cc15008bb1ba-480/hillary-clinton-thumbs-up.jpg","Forename":"Bisque1014479","Surname":"HoneyDew","Age":24,"IsDangerous":false,"Tags":["Missing"],"Status":"Returned"},{"UserID":"383A353D3B363A3A333B","Latitude":53.47593,"Longitude":-2.146436,"LastSeen":"2016-06-09T22:12:00","ProfileURL":"http://twt-thumbs.washtimes.com/media/image/2015/12/08/DEM_2016_Clinton.JPEG-09fe7_c0-174-2166-1436_s885x516.jpg?9867f27f8024a954e67a9f6c533524dcb1e43d0d","Forename":"DarkGreen1046793","Surname":"Tomato","Age":18,"IsDangerous":true,"Tags":["Missing"],"Status":"Returned"},{"UserID":"383A363D42363B3A3A3B","Latitude":53.58238,"Longitude":-2.112285,"LastSeen":"2016-08-13T17:30:00","ProfileURL":"http://img.wonkette.com/wp-content/uploads/2016/08/nbc-fires-donald-trump-after-he-calls-mexicans-rapists-and-drug-runners.jpg","Forename":"MintCream1031580","Surname":"AliceBlue","Age":15,"IsDangerous":false,"Tags":["Missing"],"Status":"Returned"},{"UserID":"383A353C41363B3A393A","Latitude":53.42874,"Longitude":-2.218432,"LastSeen":"2016-08-19T01:40:00","ProfileURL":"http://static4.businessinsider.com/image/56c640526e97c625048b822a-480/donald-trump.jpg","Forename":"Gainsboro1058898","Surname":"BlanchedAlmond","Age":12,"IsDangerous":false,"Tags":["Runaway"],"Status":"Returned"},{"UserID":"383A363C39363C3A313A","Latitude":53.63424,"Longitude":-2.113376,"LastSeen":"2016-03-29T22:41:00","ProfileURL":"http://i2.cdn.turner.com/cnnnext/dam/assets/150827102252-donald-trump-july-10-2015-super-169.jpg","Forename":"MediumOrchid1014542","Surname":"DeepPink","Age":17,"IsDangerous":true,"Tags":["Missing"],"Status":"Returned"},{"UserID":"383A353C3B36393A333A","Latitude":53.44367,"Longitude":-2.152061,"LastSeen":"2015-02-20T00:24:00","ProfileURL":"https://mises.org/sites/default/files/23158392405_d3e3b60cb8_o.jpg","Forename":"Aqua1084527","Surname":"IndianRed","Age":31,"IsDangerous":false,"Tags":["Missing"],"Status":"Returned"},{"UserID":"383A353C3F36353A373B","Latitude":53.51604,"Longitude":-2.385123,"LastSeen":"2015-11-29T00:00:00","ProfileURL":"http://jtf.org/wp-content/uploads/2015/08/hillary-clinton-laughing.jpg","Forename":"MintCream1012171","Surname":"MistyRose","Age":16,"IsDangerous":true,"Tags":["Missing"],"Status":"Returned"},{"UserID":"383A353C4036383A383A","Latitude":53.59345,"Longitude":-2.558841,"LastSeen":"2015-05-28T11:10:00","ProfileURL":"http://static4.businessinsider.com/image/55fad9869dd7cc15008bb1ba-480/hillary-clinton-thumbs-up.jpg","Forename":"PaleVioletRed1044005","Surname":"Azure","Age":18,"IsDangerous":false,"Tags":["Missing"],"Status":"Returned"},{"UserID":"383A353A3C36393A3439","Latitude":53.44915,"Longitude":-2.114283,"LastSeen":"2013-10-31T00:00:00","ProfileURL":"http://twt-thumbs.washtimes.com/media/image/2015/12/08/DEM_2016_Clinton.JPEG-09fe7_c0-174-2166-1436_s885x516.jpg?9867f27f8024a954e67a9f6c533524dcb1e43d0d","Forename":"MediumAquamarine1020588","Surname":"PaleGreen","Age":44,"IsDangerous":false,"Tags":["Missing"],"Status":"Returned"},{"UserID":"383A363C40363C3A383A","Latitude":53.49283,"Longitude":-2.070066,"LastSeen":"2015-08-03T20:34:00","ProfileURL":"https://mises.org/sites/default/files/23158392405_d3e3b60cb8_o.jpg","Forename":"MidnightBlue1027727","Surname":"LightCoral","Age":33,"IsDangerous":false,"Tags":["Missing"],"Status":"Returned"},{"UserID":"383A363D3B363A3A333B","Latitude":53.45616,"Longitude":-2.159125,"LastSeen":"2016-06-10T03:00:00","ProfileURL":"https://assets.donaldjtrump.com/site/about_body_img_1.jpg","Forename":"CadetBlue1056262","Surname":"Ivory","Age":15,"IsDangerous":true,"Tags":["Missing"],"Status":"Returned"},{"UserID":"383A363B3B36343A333A","Latitude":53.44802,"Longitude":-2.100652,"LastSeen":"2015-02-17T21:02:00","ProfileURL":"http://img.wonkette.com/wp-content/uploads/2016/08/nbc-fires-donald-trump-after-he-calls-mexicans-rapists-and-drug-runners.jpg","Forename":"Ivory1064780","Surname":"Fuchsia","Age":12,"IsDangerous":true,"Tags":["Missing"],"Status":"Returned"},{"UserID":"383A373B3A363C3A3239","Latitude":53.38204,"Longitude":-2.267133,"LastSeen":"2014-03-23T09:19:00","ProfileURL":"http://static4.businessinsider.com/image/56c640526e97c625048b822a-480/donald-trump.jpg","Forename":"BlanchedAlmond1066890","Surname":"LightSteelBlue","Age":20,"IsDangerous":false,"Tags":["Missing"],"Status":"Returned"},{"UserID":"383A353D41363B3A393B","Latitude":53.44621,"Longitude":-2.092983,"LastSeen":"2016-08-09T16:08:00","ProfileURL":"http://i2.cdn.turner.com/cnnnext/dam/assets/150827102252-donald-trump-july-10-2015-super-169.jpg","Forename":"LightGoldenrodYellow1002801","Surname":"Red","Age":29,"IsDangerous":true,"Tags":["Missing"],"Status":"Returned"},{"UserID":"383A363D3E363A3A363B","Latitude":53.48134,"Longitude":-2.176957,"LastSeen":"2016-09-05T23:52:00","ProfileURL":"https://assets.donaldjtrump.com/site/about_body_img_1.jpg","Forename":"LightBlue1082740","Surname":"LightSeaGreen","Age":15,"IsDangerous":false,"Tags":["Missing"],"Status":"Missing"},{"UserID":"383A363B3A363B3A3239","Latitude":53.52911,"Longitude":-2.218209,"LastSeen":"2016-07-12T08:45:00","ProfileURL":"http://img.wonkette.com/wp-content/uploads/2016/08/nbc-fires-donald-trump-after-he-calls-mexicans-rapists-and-drug-runners.jpg","Forename":"Olive1045140","Surname":"LightSalmon","Age":38,"IsDangerous":true,"Tags":["Missing"],"Status":"Returned"},{"UserID":"383A373B3E36373A363A","Latitude":53.56045,"Longitude":-2.070314,"LastSeen":"2016-06-30T19:19:00","ProfileURL":"http://static4.businessinsider.com/image/56c640526e97c625048b822a-480/donald-trump.jpg","Forename":"BlueViolet1089295","Surname":"OldLace","Age":17,"IsDangerous":true,"Tags":["Missing"],"Status":"Returned"},{"UserID":"383A363B3F36353A373A","Latitude":53.37173,"Longitude":-2.256396,"LastSeen":"2014-09-01T00:00:00","ProfileURL":"http://i2.cdn.turner.com/cnnnext/dam/assets/150827102252-donald-trump-july-10-2015-super-169.jpg","Forename":"Fuchsia1008948","Surname":"DarkSeaGreen","Age":47,"IsDangerous":false,"Tags":["Suicidal"],"Status":"Returned"},{"UserID":"383A373B3B363C3A3339","Latitude":53.45039,"Longitude":-2.107856,"LastSeen":"2014-03-27T22:08:00","ProfileURL":"https://assets.donaldjtrump.com/site/about_body_img_1.jpg","Forename":"Cornsilk1043904","Surname":"DarkGoldenrod","Age":38,"IsDangerous":true,"Tags":["Missing"],"Status":"Returned"},{"UserID":"383A353D40363B3A383B","Latitude":53.58803,"Longitude":-2.429078,"LastSeen":"2016-08-05T00:00:00","ProfileURL":"http://img.wonkette.com/wp-content/uploads/2016/08/nbc-fires-donald-trump-after-he-calls-mexicans-rapists-and-drug-runners.jpg","Forename":"SpringGreen1006261","Surname":"LightBlue","Age":27,"IsDangerous":false,"Tags":["Missing"],"Status":"Returned"},{"UserID":"383A353D3C363B3A343B","Latitude":53.45128,"Longitude":-2.263004,"LastSeen":"2016-07-20T19:30:00","ProfileURL":"http://jtf.org/wp-content/uploads/2015/08/hillary-clinton-laughing.jpg","Forename":"Tomato1090108","Surname":"Gold","Age":30,"IsDangerous":false,"Tags":["Missing"],"Status":"Returned"},{"UserID":"383A373A3A36383A3239","Latitude":53.54483,"Longitude":-2.197899,"LastSeen":"2013-09-06T21:12:00","ProfileURL":"http://static4.businessinsider.com/image/55fad9869dd7cc15008bb1ba-480/hillary-clinton-thumbs-up.jpg","Forename":"LightYellow1083010","Surname":"Olive","Age":14,"IsDangerous":false,"Tags":["Missing"],"Status":"Returned"},{"UserID":"383A353C3C363B3A343A","Latitude":53.52206,"Longitude":-2.54986,"LastSeen":"2015-05-27T12:40:00","ProfileURL":"http://twt-thumbs.washtimes.com/media/image/2015/12/08/DEM_2016_Clinton.JPEG-09fe7_c0-174-2166-1436_s885x516.jpg?9867f27f8024a954e67a9f6c533524dcb1e43d0d","Forename":"Peru1064130","Surname":"Snow","Age":19,"IsDangerous":true,"Tags":["Missing"],"Status":"Returned"},{"UserID":"383A353D3B363B3A333B","Latitude":53.49777,"Longitude":-2.294484,"LastSeen":"2016-07-16T19:30:00","ProfileURL":"http://static4.businessinsider.com/image/56c640526e97c625048b822a-480/donald-trump.jpg","Forename":"Violet1021968","Surname":"Cyan","Age":15,"IsDangerous":false,"Tags":["Missing"],"Status":"Returned"},{"UserID":"383A373B3E36363A363A","Latitude":53.5228,"Longitude":-2.319699,"LastSeen":"2014-10-12T20:00:00","ProfileURL":"http://i2.cdn.turner.com/cnnnext/dam/assets/150827102252-donald-trump-july-10-2015-super-169.jpg","Forename":"Orange1025077","Surname":"SeaShell","Age":17,"IsDangerous":false,"Tags":["Missing"],"Status":"Returned"},{"UserID":"383A353D3E36363A363B","Latitude":53.4664,"Longitude":-2.249448,"LastSeen":"2016-01-04T23:46:00","ProfileURL":"https://mises.org/sites/default/files/23158392405_d3e3b60cb8_o.jpg","Forename":"Linen1087538","Surname":"Gainsboro","Age":36,"IsDangerous":true,"Tags":["Missing"],"Status":"Returned"},{"UserID":"383A363B3F36333A373A","Latitude":53.50885,"Longitude":-2.533221,"LastSeen":"2015-02-06T14:04:00","ProfileURL":"https://assets.donaldjtrump.com/site/about_body_img_1.jpg","Forename":"Plum1012660","Surname":"PeachPuff","Age":54,"IsDangerous":false,"Tags":["Missing"],"Status":"Returned"},{"UserID":"383A363D39363C3A313B","Latitude":53.45759,"Longitude":-2.26113,"LastSeen":"2016-08-23T12:00:00","ProfileURL":"http://img.wonkette.com/wp-content/uploads/2016/08/nbc-fires-donald-trump-after-he-calls-mexicans-rapists-and-drug-runners.jpg","Forename":"Salmon1079395","Surname":"Tomato","Age":79,"IsDangerous":false,"Tags":["Alzheimer's","Missing"],"Status":"Returned"},{"UserID":"383A353C3D363B3A353A","Latitude":53.52696,"Longitude":-2.225168,"LastSeen":"2015-06-02T23:26:00","ProfileURL":"http://static4.businessinsider.com/image/56c640526e97c625048b822a-480/donald-trump.jpg","Forename":"DeepSkyBlue1038007","Surname":"Navy","Age":16,"IsDangerous":true,"Tags":["Missing"],"Status":"Returned"},{"UserID":"383A373B4236333A3A3A","Latitude":53.4976,"Longitude":-2.524623,"LastSeen":"2014-06-08T22:00:00","ProfileURL":"http://i2.cdn.turner.com/cnnnext/dam/assets/150827102252-donald-trump-july-10-2015-super-169.jpg","Forename":"Gold1052939","Surname":"GhostWhite","Age":33,"IsDangerous":true,"Tags":["Missing"],"Status":"Returned"},{"UserID":"383A363D3B36373A333B","Latitude":53.44172,"Longitude":-2.253339,"LastSeen":"2016-02-04T18:53:00","ProfileURL":"http://jtf.org/wp-content/uploads/2015/08/hillary-clinton-laughing.jpg","Forename":"SpringGreen1020417","Surname":"Orange","Age":62,"IsDangerous":true,"Tags":["Alzheimer's","Missing"],"Status":"Returned"},{"UserID":"383A373A3A363A3A3239","Latitude":53.42648,"Longitude":-2.198463,"LastSeen":"2013-12-13T19:11:00","ProfileURL":"http://static4.businessinsider.com/image/55fad9869dd7cc15008bb1ba-480/hillary-clinton-thumbs-up.jpg","Forename":"Fuchsia1018258","Surname":"Salmon","Age":16,"IsDangerous":true,"Tags":["Missing"],"Status":"Returned"},{"UserID":"383A363A3B36383A3339","Latitude":53.39025,"Longitude":-2.167285,"LastSeen":"2013-09-11T18:06:00","ProfileURL":"https://assets.donaldjtrump.com/site/about_body_img_1.jpg","Forename":"Cyan1047190","Surname":"DodgerBlue","Age":65,"IsDangerous":false,"Tags":["Alzheimer's","Missing"],"Status":"Returned"},{"UserID":"383A373A3C363A3A3439","Latitude":53.63581,"Longitude":-2.167075,"LastSeen":"2013-12-21T19:09:00","ProfileURL":"http://twt-thumbs.washtimes.com/media/image/2015/12/08/DEM_2016_Clinton.JPEG-09fe7_c0-174-2166-1436_s885x516.jpg?9867f27f8024a954e67a9f6c533524dcb1e43d0d","Forename":"Brown1028591","Surname":"DeepSkyBlue","Age":61,"IsDangerous":true,"Tags":["Alzheimer's","Missing"],"Status":"Returned"},{"UserID":"383A363C3F363B3A373A","Latitude":53.42148,"Longitude":-2.130417,"LastSeen":"2015-06-12T00:54:00","ProfileURL":"https://mises.org/sites/default/files/23158392405_d3e3b60cb8_o.jpg","Forename":"FloralWhite1078577","Surname":"SpringGreen","Age":17,"IsDangerous":false,"Tags":["Missing"],"Status":"Returned"},{"UserID":"383A373A3E36383A3639","Latitude":53.40143,"Longitude":-2.122834,"LastSeen":"2013-09-26T20:01:00","ProfileURL":"http://img.wonkette.com/wp-content/uploads/2016/08/nbc-fires-donald-trump-after-he-calls-mexicans-rapists-and-drug-runners.jpg","Forename":"LightSalmon1041739","Surname":"YellowGreen","Age":85,"IsDangerous":false,"Tags":["Alzheimer's","Missing"],"Status":"Returned"},{"UserID":"383A353D39363C3A313B","Latitude":53.55697,"Longitude":-2.374987,"LastSeen":"2016-08-17T17:37:00","ProfileURL":"http://static4.businessinsider.com/image/56c640526e97c625048b822a-480/donald-trump.jpg","Forename":"GreenYellow1048221","Surname":"Magenta","Age":9,"IsDangerous":true,"Tags":["Missing"],"Status":"Returned"},{"UserID":"383A353D4136393A393B","Latitude":53.39579,"Longitude":-2.283537,"LastSeen":"2016-05-27T15:53:00","ProfileURL":"http://i2.cdn.turner.com/cnnnext/dam/assets/150827102252-donald-trump-july-10-2015-super-169.jpg","Forename":"DarkSeaGreen1035753","Surname":"PowderBlue","Age":6,"IsDangerous":true,"Tags":["Missing"],"Status":"Returned"},{"UserID":"383A353D4236373A3A3B","Latitude":53.609,"Longitude":-2.338202,"LastSeen":"2016-03-06T03:59:00","ProfileURL":"https://assets.donaldjtrump.com/site/about_body_img_1.jpg","Forename":"SlateGray1083315","Surname":"LightYellow","Age":40,"IsDangerous":false,"Tags":["Missing"],"Status":"Returned"},{"UserID":"383A353C3D36393A353A","Latitude":53.599,"Longitude":-2.089268,"LastSeen":"2015-02-26T13:00:00","ProfileURL":"http://jtf.org/wp-content/uploads/2015/08/hillary-clinton-laughing.jpg","Forename":"DarkGray1052125","Surname":"HoneyDew","Age":18,"IsDangerous":false,"Tags":["Missing"],"Status":"Returned"},{"UserID":"383A353C3F363A3A373A","Latitude":53.60684,"Longitude":-2.125107,"LastSeen":"2015-04-27T18:00:00","ProfileURL":"http://static4.businessinsider.com/image/55fad9869dd7cc15008bb1ba-480/hillary-clinton-thumbs-up.jpg","Forename":"Brown1066839","Surname":"MediumSlateBlue","Age":15,"IsDangerous":false,"Tags":["Missing"],"Status":"Returned"},{"UserID":"383A363B3D363B3A3539","Latitude":53.48188,"Longitude":-2.637098,"LastSeen":"2015-01-12T12:44:00","ProfileURL":"http://twt-thumbs.washtimes.com/media/image/2015/12/08/DEM_2016_Clinton.JPEG-09fe7_c0-174-2166-1436_s885x516.jpg?9867f27f8024a954e67a9f6c533524dcb1e43d0d","Forename":"Wheat1024193","Surname":"LightGray","Age":17,"IsDangerous":true,"Tags":["Missing"],"Status":"Returned"},{"UserID":"383A363C3A363A3A323A","Latitude":53.49283,"Longitude":-2.070066,"LastSeen":"2015-04-04T21:51:00","ProfileURL":"http://img.wonkette.com/wp-content/uploads/2016/08/nbc-fires-donald-trump-after-he-calls-mexicans-rapists-and-drug-runners.jpg","Forename":"Tan1030933","Surname":"SeaShell","Age":47,"IsDangerous":false,"Tags":["Missing"],"Status":"Returned"},{"UserID":"383A363B3F363C3A3739","Latitude":53.42315,"Longitude":-2.170635,"LastSeen":"2015-11-18T12:42:00","ProfileURL":"http://static4.businessinsider.com/image/56c640526e97c625048b822a-480/donald-trump.jpg","Forename":"Indigo1069087","Surname":"Coral","Age":13,"IsDangerous":true,"Tags":["Missing"],"Status":"Returned"},{"UserID":"383A373B4036343A383A","Latitude":53.4894,"Longitude":-2.129253,"LastSeen":"2014-08-26T21:54:00","ProfileURL":"https://mises.org/sites/default/files/23158392405_d3e3b60cb8_o.jpg","Forename":"MediumTurquoise1063190","Surname":"Teal","Age":16,"IsDangerous":false,"Tags":["Missing"],"Status":"Returned"},{"UserID":"383A353A3C363A3A3439","Latitude":53.53364,"Longitude":-2.558174,"LastSeen":"2014-01-18T16:45:00","ProfileURL":"http://jtf.org/wp-content/uploads/2015/08/hillary-clinton-laughing.jpg","Forename":"DarkSeaGreen1043781","Surname":"Brown","Age":18,"IsDangerous":false,"Tags":["Missing"],"Status":"Returned"},{"UserID":"383A353C4236353A3A3B","Latitude":53.40022,"Longitude":-2.129885,"LastSeen":"2015-12-04T12:00:00","ProfileURL":"http://i2.cdn.turner.com/cnnnext/dam/assets/150827102252-donald-trump-july-10-2015-super-169.jpg","Forename":"MediumOrchid1006477","Surname":"Purple","Age":26,"IsDangerous":false,"Tags":["Missing"],"Status":"Returned"},{"UserID":"383A373B3B36343A333A","Latitude":53.43247,"Longitude":-2.252802,"LastSeen":"2014-06-26T04:00:00","ProfileURL":"http://static4.businessinsider.com/image/55fad9869dd7cc15008bb1ba-480/hillary-clinton-thumbs-up.jpg","Forename":"DarkBlue1038414","Surname":"LimeGreen","Age":19,"IsDangerous":true,"Tags":["Missing"],"Status":"Returned"},{"UserID":"383A363A3D36393A3539","Latitude":53.5475,"Longitude":-2.669494,"LastSeen":"2013-11-08T11:03:00","ProfileURL":"http://twt-thumbs.washtimes.com/media/image/2015/12/08/DEM_2016_Clinton.JPEG-09fe7_c0-174-2166-1436_s885x516.jpg?9867f27f8024a954e67a9f6c533524dcb1e43d0d","Forename":"Azure1053871","Surname":"Ivory","Age":18,"IsDangerous":true,"Tags":["Missing"],"Status":"Returned"},{"UserID":"383A363C4136383A393A","Latitude":53.59252,"Longitude":-2.172722,"LastSeen":"2015-01-30T19:00:00","ProfileURL":"https://mises.org/sites/default/files/23158392405_d3e3b60cb8_o.jpg","Forename":"DarkSalmon1058979","Surname":"Linen","Age":20,"IsDangerous":false,"Tags":["Missing"],"Status":"Returned"},{"UserID":"383A353C3E363C3A363A","Latitude":53.52477,"Longitude":-2.165778,"LastSeen":"2015-07-18T02:00:00","ProfileURL":"https://assets.donaldjtrump.com/site/about_body_img_1.jpg","Forename":"PapayaWhip1084968","Surname":"Violet","Age":15,"IsDangerous":true,"Tags":["Missing"],"Status":"Returned"},{"UserID":"383A373B3936373A313A","Latitude":53.58136,"Longitude":-2.168099,"LastSeen":"2014-11-09T23:47:00","ProfileURL":"http://img.wonkette.com/wp-content/uploads/2016/08/nbc-fires-donald-trump-after-he-calls-mexicans-rapists-and-drug-runners.jpg","Forename":"Black1020260","Surname":"CornflowerBlue","Age":18,"IsDangerous":true,"Tags":["Missing"],"Status":"Returned"},{"UserID":"383A363D3D363B3A353B","Latitude":53.46584,"Longitude":-2.228761,"LastSeen":"2016-07-25T08:30:00","ProfileURL":"http://jtf.org/wp-content/uploads/2015/08/hillary-clinton-laughing.jpg","Forename":"LightSteelBlue1013755","Surname":"FireBrick","Age":34,"IsDangerous":false,"Tags":["Missing"],"Status":"Returned"},{"UserID":"383A373A3D36393A3539","Latitude":53.39202,"Longitude":-2.291558,"LastSeen":"2013-11-08T18:00:00","ProfileURL":"http://static4.businessinsider.com/image/56c640526e97c625048b822a-480/donald-trump.jpg","Forename":"Thistle1008403","Surname":"CadetBlue","Age":38,"IsDangerous":false,"Tags":["Missing"],"Status":"Returned"},{"UserID":"383A353D3F36373A373B","Latitude":53.45896,"Longitude":-2.376171,"LastSeen":"2016-02-21T15:54:00","ProfileURL":"http://static4.businessinsider.com/image/55fad9869dd7cc15008bb1ba-480/hillary-clinton-thumbs-up.jpg","Forename":"Goldenrod1011467","Surname":"PaleTurquoise","Age":28,"IsDangerous":true,"Tags":["Missing"],"Status":"Returned"},{"UserID":"383A373B3D363B3A3539","Latitude":53.53401,"Longitude":-2.097098,"LastSeen":"2016-04-30T22:17:00","ProfileURL":"http://i2.cdn.turner.com/cnnnext/dam/assets/150827102252-donald-trump-july-10-2015-super-169.jpg","Forename":"Lavender1004048","Surname":"MidnightBlue","Age":85,"IsDangerous":true,"Tags":["Alzheimer's","Missing"],"Status":"Returned"},{"UserID":"383A353C3E36393A363A","Latitude":53.46595,"Longitude":-2.223835,"LastSeen":"2016-06-09T16:00:00","ProfileURL":"http://twt-thumbs.washtimes.com/media/image/2015/12/08/DEM_2016_Clinton.JPEG-09fe7_c0-174-2166-1436_s885x516.jpg?9867f27f8024a954e67a9f6c533524dcb1e43d0d","Forename":"HotPink1084741","Surname":"MediumSlateBlue","Age":51,"IsDangerous":false,"Tags":["Missing"],"Status":"Returned"},{"UserID":"383A373B3B36333A333A","Latitude":53.57421,"Longitude":-2.391058,"LastSeen":"2014-05-14T15:20:00","ProfileURL":"https://assets.donaldjtrump.com/site/about_body_img_1.jpg","Forename":"Azure1082795","Surname":"Lavender","Age":14,"IsDangerous":false,"Tags":["Missing"],"Status":"Returned"},{"UserID":"383A353C3C36363A343B","Latitude":53.48036,"Longitude":-2.041232,"LastSeen":"2015-12-27T09:52:00","ProfileURL":"http://img.wonkette.com/wp-content/uploads/2016/08/nbc-fires-donald-trump-after-he-calls-mexicans-rapists-and-drug-runners.jpg","Forename":"Aqua1016391","Surname":"DarkOrchid","Age":50,"IsDangerous":false,"Tags":["Missing"],"Status":"Returned"},{"UserID":"383A373A4036393A3839","Latitude":53.5478,"Longitude":-2.371992,"LastSeen":"2014-01-03T13:23:00","ProfileURL":"https://mises.org/sites/default/files/23158392405_d3e3b60cb8_o.jpg","Forename":"Gainsboro1003374","Surname":"Olive","Age":52,"IsDangerous":true,"Tags":["Suicidal"],"Status":"Returned"},{"UserID":"383A363C3E36353A363B","Latitude":53.59232,"Longitude":-2.472426,"LastSeen":"2015-11-25T08:15:00","ProfileURL":"http://static4.businessinsider.com/image/56c640526e97c625048b822a-480/donald-trump.jpg","Forename":"Tomato1000219","Surname":"LightSeaGreen","Age":65,"IsDangerous":true,"Tags":["Alzheimer's","Missing"],"Status":"Returned"},{"UserID":"383A353D42363A3A3A3B","Latitude":53.38439,"Longitude":-2.130288,"LastSeen":"2016-07-07T22:26:00","ProfileURL":"http://i2.cdn.turner.com/cnnnext/dam/assets/150827102252-donald-trump-july-10-2015-super-169.jpg","Forename":"CadetBlue1051828","Surname":"SkyBlue","Age":35,"IsDangerous":false,"Tags":["Missing"],"Status":"Returned"},{"UserID":"383A353C3E36353A363B","Latitude":53.52343,"Longitude":-2.117937,"LastSeen":"2015-11-16T00:00:00","ProfileURL":"https://assets.donaldjtrump.com/site/about_body_img_1.jpg","Forename":"Aquamarine1012677","Surname":"Green","Age":31,"IsDangerous":true,"Tags":["Missing"],"Status":"Returned"},{"UserID":"383A353D3A363A3A323B","Latitude":53.55265,"Longitude":-2.647052,"LastSeen":"2016-06-06T13:30:00","ProfileURL":"http://img.wonkette.com/wp-content/uploads/2016/08/nbc-fires-donald-trump-after-he-calls-mexicans-rapists-and-drug-runners.jpg","Forename":"DarkOliveGreen1032340","Surname":"BlanchedAlmond","Age":49,"IsDangerous":false,"Tags":["Missing"],"Status":"Returned"},{"UserID":"383A363B3A36373A323A","Latitude":53.54839,"Longitude":-2.674867,"LastSeen":"2014-11-08T00:00:00","ProfileURL":"http://jtf.org/wp-content/uploads/2015/08/hillary-clinton-laughing.jpg","Forename":"OliveDrab1038957","Surname":"SeaShell","Age":18,"IsDangerous":false,"Tags":["Missing"],"Status":"Returned"},{"UserID":"383A373B3C363B3A3439","Latitude":53.55078,"Longitude":-2.617542,"LastSeen":"2014-05-23T00:19:00","ProfileURL":"http://static4.businessinsider.com/image/56c640526e97c625048b822a-480/donald-trump.jpg","Forename":"Coral1041909","Surname":"Sienna","Age":19,"IsDangerous":false,"Tags":["Missing"],"Status":"Returned"},{"UserID":"383A373B3E36333A363A","Latitude":53.45739,"Longitude":-2.116609,"LastSeen":"2014-05-27T15:30:00","ProfileURL":"http://i2.cdn.turner.com/cnnnext/dam/assets/150827102252-donald-trump-july-10-2015-super-169.jpg","Forename":"MediumSeaGreen1046416","Surname":"DarkSalmon","Age":19,"IsDangerous":false,"Tags":["Missing"],"Status":"Returned"},{"UserID":"383A363C3936333A313B","Latitude":53.51766,"Longitude":-2.228723,"LastSeen":"2015-08-09T19:41:00","ProfileURL":"http://static4.businessinsider.com/image/55fad9869dd7cc15008bb1ba-480/hillary-clinton-thumbs-up.jpg","Forename":"Snow1072561","Surname":"Ivory","Age":38,"IsDangerous":false,"Tags":["Missing"],"Status":"Returned"},{"UserID":"383A353D4036373A383B","Latitude":53.43378,"Longitude":-2.162835,"LastSeen":"2016-06-12T22:00:00","ProfileURL":"https://assets.donaldjtrump.com/site/about_body_img_1.jpg","Forename":"DarkViolet1056437","Surname":"SlateGray","Age":17,"IsDangerous":true,"Tags":["Missing"],"Status":"Returned"},{"UserID":"383A363C3C36393A343A","Latitude":53.48669,"Longitude":-2.097789,"LastSeen":"2016-08-29T23:50:00","ProfileURL":"http://img.wonkette.com/wp-content/uploads/2016/08/nbc-fires-donald-trump-after-he-calls-mexicans-rapists-and-drug-runners.jpg","Forename":"Gainsboro1055146","Surname":"MidnightBlue","Age":17,"IsDangerous":true,"Tags":["Missing"],"Status":"Returned"},{"UserID":"383A353C4036353A383B","Latitude":53.47356,"Longitude":-2.064565,"LastSeen":"2015-12-03T00:32:00","ProfileURL":"http://static4.businessinsider.com/image/56c640526e97c625048b822a-480/donald-trump.jpg","Forename":"MistyRose1016370","Surname":"DarkSlateGray","Age":65,"IsDangerous":true,"Tags":["Alzheimer's","Missing"],"Status":"Returned"},{"UserID":"383A353C4036393A383A","Latitude":53.58704,"Longitude":-2.282429,"LastSeen":"2015-03-16T18:09:00","ProfileURL":"http://i2.cdn.turner.com/cnnnext/dam/assets/150827102252-donald-trump-july-10-2015-super-169.jpg","Forename":"OldLace1038074","Surname":"Azure","Age":19,"IsDangerous":false,"Tags":["Missing"],"Status":"Returned"},{"UserID":"383A353A3A36383A3239","Latitude":53.53257,"Longitude":-2.406005,"LastSeen":"2013-09-04T14:00:00","ProfileURL":"https://assets.donaldjtrump.com/site/about_body_img_1.jpg","Forename":"BlanchedAlmond1012596","Surname":"Tan","Age":30,"IsDangerous":false,"Tags":["Missing"],"Status":"Returned"},{"UserID":"383A373B3936363A313A","Latitude":53.61251,"Longitude":-2.121284,"LastSeen":"2014-09-20T04:40:00","ProfileURL":"http://twt-thumbs.washtimes.com/media/image/2015/12/08/DEM_2016_Clinton.JPEG-09fe7_c0-174-2166-1436_s885x516.jpg?9867f27f8024a954e67a9f6c533524dcb1e43d0d","Forename":"Goldenrod1088329","Surname":"Cornsilk","Age":21,"IsDangerous":false,"Tags":["Missing"],"Status":"Returned"},{"UserID":"383A353C40363B3A383A","Latitude":53.56031,"Longitude":-2.271727,"LastSeen":"2015-06-15T08:10:00","ProfileURL":"https://mises.org/sites/default/files/23158392405_d3e3b60cb8_o.jpg","Forename":"BlanchedAlmond1074283","Surname":"Moccasin","Age":16,"IsDangerous":true,"Tags":["Missing"],"Status":"Returned"},{"UserID":"383A363C3D363A3A353A","Latitude":53.46924,"Longitude":-2.26078,"LastSeen":"2015-04-19T15:00:00","ProfileURL":"http://img.wonkette.com/wp-content/uploads/2016/08/nbc-fires-donald-trump-after-he-calls-mexicans-rapists-and-drug-runners.jpg","Forename":"CornflowerBlue1027371","Surname":"MediumAquamarine","Age":23,"IsDangerous":false,"Tags":["Missing"],"Status":"Returned"},{"UserID":"383A363C4036353A383B","Latitude":53.5389,"Longitude":-2.092794,"LastSeen":"2016-04-11T20:19:00","ProfileURL":"http://static4.businessinsider.com/image/56c640526e97c625048b822a-480/donald-trump.jpg","Forename":"Maroon1028429","Surname":"LightSlateGray","Age":15,"IsDangerous":false,"Tags":["Missing"],"Status":"Returned"},{"UserID":"383A363C4236383A3A3A","Latitude":53.55642,"Longitude":-2.62857,"LastSeen":"2015-08-22T02:30:00","ProfileURL":"http://jtf.org/wp-content/uploads/2015/08/hillary-clinton-laughing.jpg","Forename":"Violet1036230","Surname":"LightSlateGray","Age":17,"IsDangerous":true,"Tags":["Missing"],"Status":"Returned"},{"UserID":"383A363A3D363A3A3539","Latitude":53.51957,"Longitude":-2.337293,"LastSeen":"2013-12-24T15:00:00","ProfileURL":"http://static4.businessinsider.com/image/55fad9869dd7cc15008bb1ba-480/hillary-clinton-thumbs-up.jpg","Forename":"Green1088236","Surname":"DarkOliveGreen","Age":46,"IsDangerous":false,"Tags":["Missing"],"Status":"Returned"},{"UserID":"383A353D4236363A3A3B","Latitude":53.49283,"Longitude":-2.070066,"LastSeen":"2016-01-22T15:05:00","ProfileURL":"http://i2.cdn.turner.com/cnnnext/dam/assets/150827102252-donald-trump-july-10-2015-super-169.jpg","Forename":"LemonChiffon1063418","Surname":"RoyalBlue","Age":81,"IsDangerous":false,"Tags":["Alzheimer's","Missing"],"Status":"Returned"},{"UserID":"383A363A39363A3A3139","Latitude":53.52817,"Longitude":-2.070924,"LastSeen":"2013-12-07T20:47:00","ProfileURL":"https://assets.donaldjtrump.com/site/about_body_img_1.jpg","Forename":"SkyBlue1050090","Surname":"Ivory","Age":16,"IsDangerous":true,"Tags":["Missing"],"Status":"Returned"},{"UserID":"383A363B4236373A3A3A","Latitude":53.46584,"Longitude":-2.228761,"LastSeen":"2014-12-14T05:30:00","ProfileURL":"http://img.wonkette.com/wp-content/uploads/2016/08/nbc-fires-donald-trump-after-he-calls-mexicans-rapists-and-drug-runners.jpg","Forename":"RoyalBlue1014166","Surname":"Peru","Age":32,"IsDangerous":false,"Tags":["Missing"],"Status":"Returned"},{"UserID":"383A363D4236363A3A3B","Latitude":53.53589,"Longitude":-2.618412,"LastSeen":"2016-01-22T18:30:00","ProfileURL":"http://static4.businessinsider.com/image/56c640526e97c625048b822a-480/donald-trump.jpg","Forename":"DeepPink1024199","Surname":"White","Age":31,"IsDangerous":true,"Tags":["Missing"],"Status":"Returned"},{"UserID":"383A363C3E36393A363A","Latitude":53.46584,"Longitude":-2.228761,"LastSeen":"2016-09-01T20:53:00","ProfileURL":"http://i2.cdn.turner.com/cnnnext/dam/assets/150827102252-donald-trump-july-10-2015-super-169.jpg","Forename":"GreenYellow1008171","Surname":"PaleVioletRed","Age":41,"IsDangerous":false,"Tags":["Missing"],"Status":"Returned"},{"UserID":"383A353D3D36383A353B","Latitude":53.49979,"Longitude":-2.339729,"LastSeen":"2016-03-25T06:07:00","ProfileURL":"http://twt-thumbs.washtimes.com/media/image/2015/12/08/DEM_2016_Clinton.JPEG-09fe7_c0-174-2166-1436_s885x516.jpg?9867f27f8024a954e67a9f6c533524dcb1e43d0d","Forename":"Azure1042798","Surname":"Tomato","Age":36,"IsDangerous":false,"Tags":["Missing"],"Status":"Returned"},{"UserID":"383A363B3F363A3A3739","Latitude":53.57896,"Longitude":-2.380921,"LastSeen":"2014-01-06T17:50:00","ProfileURL":"https://mises.org/sites/default/files/23158392405_d3e3b60cb8_o.jpg","Forename":"WhiteSmoke1026485","Surname":"Black","Age":18,"IsDangerous":false,"Tags":["Missing"],"Status":"Returned"},{"UserID":"383A363D3936393A313B","Latitude":53.60724,"Longitude":-2.155702,"LastSeen":"2016-09-03T18:30:00","ProfileURL":"http://jtf.org/wp-content/uploads/2015/08/hillary-clinton-laughing.jpg","Forename":"PaleTurquoise1075896","Surname":"PowderBlue","Age":20,"IsDangerous":false,"Tags":["Missing"],"Status":"Returned"},{"UserID":"383A353C3D363C3A353A","Latitude":53.52076,"Longitude":-2.036112,"LastSeen":"2015-07-10T07:30:00","ProfileURL":"https://assets.donaldjtrump.com/site/about_body_img_1.jpg","Forename":"MediumSpringGreen1078252","Surname":"Green","Age":52,"IsDangerous":false,"Tags":["Missing"],"Status":"Returned"},{"UserID":"383A373B4036333A383A","Latitude":53.46584,"Longitude":-2.228761,"LastSeen":"2014-06-06T02:50:00","ProfileURL":"http://img.wonkette.com/wp-content/uploads/2016/08/nbc-fires-donald-trump-after-he-calls-mexicans-rapists-and-drug-runners.jpg","Forename":"MediumPurple1038863","Surname":"GreenYellow","Age":39,"IsDangerous":true,"Tags":["Missing"],"Status":"Returned"},{"UserID":"383A363B41363B3A3939","Latitude":53.50923,"Longitude":-2.525777,"LastSeen":"2014-03-08T15:17:00","ProfileURL":"http://static4.businessinsider.com/image/55fad9869dd7cc15008bb1ba-480/hillary-clinton-thumbs-up.jpg","Forename":"DarkOliveGreen1054464","Surname":"DarkOrchid","Age":8,"IsDangerous":false,"Tags":["Missing"],"Status":"Returned"},{"UserID":"383A373A4136393A3939","Latitude":53.50703,"Longitude":-2.186534,"LastSeen":"2013-11-28T11:26:00","ProfileURL":"http://twt-thumbs.washtimes.com/media/image/2015/12/08/DEM_2016_Clinton.JPEG-09fe7_c0-174-2166-1436_s885x516.jpg?9867f27f8024a954e67a9f6c533524dcb1e43d0d","Forename":"RosyBrown1025168","Surname":"Azure","Age":42,"IsDangerous":false,"Tags":["Missing"],"Status":"Returned"},{"UserID":"383A353D3A363C3A323B","Latitude":53.45318,"Longitude":-2.348544,"LastSeen":"2016-08-23T22:00:00","ProfileURL":"https://mises.org/sites/default/files/23158392405_d3e3b60cb8_o.jpg","Forename":"LightCoral1002341","Surname":"Gainsboro","Age":14,"IsDangerous":false,"Tags":["Missing"],"Status":"Returned"},{"UserID":"383A373B3E363C3A3639","Latitude":53.52164,"Longitude":-2.502775,"LastSeen":"2015-07-08T13:30:00","ProfileURL":"http://static4.businessinsider.com/image/56c640526e97c625048b822a-480/donald-trump.jpg","Forename":"DarkKhaki1031844","Surname":"Plum","Age":35,"IsDangerous":true,"Tags":["Suicidal"],"Status":"Returned"},{"UserID":"383A373A4036383A3839","Latitude":53.3707,"Longitude":-2.360136,"LastSeen":"2013-10-05T10:44:00","ProfileURL":"http://jtf.org/wp-content/uploads/2015/08/hillary-clinton-laughing.jpg","Forename":"Violet1052425","Surname":"DarkMagenta","Age":95,"IsDangerous":false,"Tags":["Alzheimer's","Missing"],"Status":"Returned"},{"UserID":"383A353D3936373A313B","Latitude":53.49792,"Longitude":-2.251849,"LastSeen":"2016-01-26T19:46:00","ProfileURL":"http://i2.cdn.turner.com/cnnnext/dam/assets/150827102252-donald-trump-july-10-2015-super-169.jpg","Forename":"Plum1027172","Surname":"MediumSpringGreen","Age":15,"IsDangerous":false,"Tags":["Missing"],"Status":"Returned"},{"UserID":"383A363D4036363A383B","Latitude":53.55204,"Longitude":-2.095509,"LastSeen":"2016-01-14T16:17:00","ProfileURL":"https://assets.donaldjtrump.com/site/about_body_img_1.jpg","Forename":"Purple1060155","Surname":"Indigo","Age":89,"IsDangerous":false,"Tags":["Alzheimer's","Missing"],"Status":"Returned"},{"UserID":"383A363B3D363C3A3539","Latitude":53.49283,"Longitude":-2.070066,"LastSeen":"2015-02-20T08:16:00","ProfileURL":"http://img.wonkette.com/wp-content/uploads/2016/08/nbc-fires-donald-trump-after-he-calls-mexicans-rapists-and-drug-runners.jpg","Forename":"MistyRose1027362","Surname":"Coral","Age":31,"IsDangerous":false,"Tags":["Missing"],"Status":"Returned"},{"UserID":"383A373B3D36353A353A","Latitude":53.49895,"Longitude":-2.089028,"LastSeen":"2014-08-23T11:30:00","ProfileURL":"http://static4.businessinsider.com/image/56c640526e97c625048b822a-480/donald-trump.jpg","Forename":"LimeGreen1001190","Surname":"Sienna","Age":28,"IsDangerous":false,"Tags":["Missing"],"Status":"Returned"},{"UserID":"383A353D4036393A383B","Latitude":53.51367,"Longitude":-2.227435,"LastSeen":"2016-05-21T11:35:00","ProfileURL":"http://i2.cdn.turner.com/cnnnext/dam/assets/150827102252-donald-trump-july-10-2015-super-169.jpg","Forename":"DarkGreen1007038","Surname":"Turquoise","Age":37,"IsDangerous":false,"Tags":["Missing"],"Status":"Returned"},{"UserID":"383A363A3E36393A3639","Latitude":53.57083,"Longitude":-2.339272,"LastSeen":"2013-11-13T13:03:00","ProfileURL":"https://assets.donaldjtrump.com/site/about_body_img_1.jpg","Forename":"LightGray1018452","Surname":"Olive","Age":14,"IsDangerous":true,"Tags":["Missing"],"Status":"Returned"},{"UserID":"383A353C3D36333A353B","Latitude":53.41969,"Longitude":-2.215737,"LastSeen":"2015-06-07T12:00:00","ProfileURL":"http://img.wonkette.com/wp-content/uploads/2016/08/nbc-fires-donald-trump-after-he-calls-mexicans-rapists-and-drug-runners.jpg","Forename":"Linen1037688","Surname":"WhiteSmoke","Age":28,"IsDangerous":false,"Tags":["Missing"],"Status":"Dormant"},{"UserID":"383A373A3E36393A3639","Latitude":53.49283,"Longitude":-2.070066,"LastSeen":"2013-11-13T18:32:00","ProfileURL":"http://static4.businessinsider.com/image/55fad9869dd7cc15008bb1ba-480/hillary-clinton-thumbs-up.jpg","Forename":"LightSalmon1000714","Surname":"Bisque","Age":44,"IsDangerous":false,"Tags":["Missing"],"Status":"Returned"},{"UserID":"383A353D3A36383A323B","Latitude":53.40598,"Longitude":-2.262574,"LastSeen":"2016-03-13T01:30:00","ProfileURL":"http://static4.businessinsider.com/image/56c640526e97c625048b822a-480/donald-trump.jpg","Forename":"SaddleBrown1081067","Surname":"LightSalmon","Age":22,"IsDangerous":false,"Tags":["Missing"],"Status":"Returned"},{"UserID":"383A353D4036383A383B","Latitude":53.62459,"Longitude":-2.142685,"LastSeen":"2016-04-07T23:38:00","ProfileURL":"http://i2.cdn.turner.com/cnnnext/dam/assets/150827102252-donald-trump-july-10-2015-super-169.jpg","Forename":"LightCyan1076771","Surname":"DarkViolet","Age":17,"IsDangerous":false,"Tags":["Missing"],"Status":"Returned"},{"UserID":"383A363B3A363C3A3239","Latitude":53.50936,"Longitude":-2.150743,"LastSeen":"2014-03-22T21:58:00","ProfileURL":"http://twt-thumbs.washtimes.com/media/image/2015/12/08/DEM_2016_Clinton.JPEG-09fe7_c0-174-2166-1436_s885x516.jpg?9867f27f8024a954e67a9f6c533524dcb1e43d0d","Forename":"DodgerBlue1001391","Surname":"LightSalmon","Age":15,"IsDangerous":false,"Tags":["Missing"],"Status":"Returned"},{"UserID":"383A353D3D363C3A353B","Latitude":53.52412,"Longitude":-2.394051,"LastSeen":"2016-08-31T12:07:00","ProfileURL":"https://assets.donaldjtrump.com/site/about_body_img_1.jpg","Forename":"RoyalBlue1060608","Surname":"Moccasin","Age":75,"IsDangerous":false,"Tags":["Alzheimer's","Missing"],"Status":"Returned"},{"UserID":"383A363C3D36353A353B","Latitude":53.49821,"Longitude":-2.072955,"LastSeen":"2015-11-21T10:40:00","ProfileURL":"http://img.wonkette.com/wp-content/uploads/2016/08/nbc-fires-donald-trump-after-he-calls-mexicans-rapists-and-drug-runners.jpg","Forename":"DarkBlue1052979","Surname":"PowderBlue","Age":84,"IsDangerous":false,"Tags":["Alzheimer's","Missing"],"Status":"Returned"},{"UserID":"383A353C3D36343A353B","Latitude":53.59032,"Longitude":-2.311763,"LastSeen":"2015-10-10T11:53:00","ProfileURL":"http://static4.businessinsider.com/image/56c640526e97c625048b822a-480/donald-trump.jpg","Forename":"MediumAquamarine1066218","Surname":"BlueViolet","Age":33,"IsDangerous":true,"Tags":["Missing"],"Status":"Returned"},{"UserID":"383A373B3A36353A323A","Latitude":53.44718,"Longitude":-2.080216,"LastSeen":"2014-08-07T11:07:00","ProfileURL":"https://mises.org/sites/default/files/23158392405_d3e3b60cb8_o.jpg","Forename":"OrangeRed1008434","Surname":"DarkGreen","Age":24,"IsDangerous":true,"Tags":["Missing"],"Status":"Returned"},{"UserID":"383A373A3A36393A3239","Latitude":53.43467,"Longitude":-2.197402,"LastSeen":"2013-10-23T12:15:00","ProfileURL":"http://i2.cdn.turner.com/cnnnext/dam/assets/150827102252-donald-trump-july-10-2015-super-169.jpg","Forename":"DarkGray1015159","Surname":"ForestGreen","Age":18,"IsDangerous":false,"Tags":["Missing"],"Status":"Returned"},{"UserID":"383A353C3B36363A333B","Latitude":53.51367,"Longitude":-2.227435,"LastSeen":"2015-12-21T08:15:00","ProfileURL":"https://assets.donaldjtrump.com/site/about_body_img_1.jpg","Forename":"RoyalBlue1063544","Surname":"FloralWhite","Age":47,"IsDangerous":false,"Tags":["Missing"],"Status":"Returned"},{"UserID":"383A363B3936353A313A","Latitude":53.48695,"Longitude":-2.326152,"LastSeen":"2014-07-25T12:30:00","ProfileURL":"http://jtf.org/wp-content/uploads/2015/08/hillary-clinton-laughing.jpg","Forename":"Plum1060705","Surname":"SandyBrown","Age":80,"IsDangerous":false,"Tags":["Alzheimer's","Missing"],"Status":"Returned"},{"UserID":"383A363D4136363A393B","Latitude":53.54384,"Longitude":-2.655143,"LastSeen":"2015-05-31T13:29:00","ProfileURL":"http://img.wonkette.com/wp-content/uploads/2016/08/nbc-fires-donald-trump-after-he-calls-mexicans-rapists-and-drug-runners.jpg","Forename":"Aquamarine1090687","Surname":"MidnightBlue","Age":34,"IsDangerous":false,"Tags":["Missing"],"Status":"Dormant"},{"UserID":"383A373B3E363B3A3639","Latitude":53.47651,"Longitude":-2.159864,"LastSeen":"2014-02-22T17:40:00","ProfileURL":"http://static4.businessinsider.com/image/55fad9869dd7cc15008bb1ba-480/hillary-clinton-thumbs-up.jpg","Forename":"DarkCyan1053261","Surname":"Bisque","Age":0,"IsDangerous":false,"Tags":["Missing"],"Status":"Returned"},{"UserID":"383A363D3B36393A333B","Latitude":53.55347,"Longitude":-2.616948,"LastSeen":"2016-04-30T18:44:00","ProfileURL":"http://twt-thumbs.washtimes.com/media/image/2015/12/08/DEM_2016_Clinton.JPEG-09fe7_c0-174-2166-1436_s885x516.jpg?9867f27f8024a954e67a9f6c533524dcb1e43d0d","Forename":"SeaGreen1033503","Surname":"DarkBlue","Age":25,"IsDangerous":false,"Tags":["Missing"],"Status":"Returned"},{"UserID":"383A363C3936393A313A","Latitude":53.4849,"Longitude":-2.188501,"LastSeen":"2015-10-14T07:30:00","ProfileURL":"http://static4.businessinsider.com/image/56c640526e97c625048b822a-480/donald-trump.jpg","Forename":"Pink1037130","Surname":"Plum","Age":16,"IsDangerous":true,"Tags":["Missing"],"Status":"Returned"},{"UserID":"383A363D4036373A383B","Latitude":53.39078,"Longitude":-2.230975,"LastSeen":"2016-02-26T12:40:00","ProfileURL":"https://mises.org/sites/default/files/23158392405_d3e3b60cb8_o.jpg","Forename":"Red1018391","Surname":"CadetBlue","Age":13,"IsDangerous":false,"Tags":["Missing"],"Status":"Returned"},{"UserID":"383A353C4136353A393B","Latitude":53.51367,"Longitude":-2.227435,"LastSeen":"2015-12-06T22:57:00","ProfileURL":"http://i2.cdn.turner.com/cnnnext/dam/assets/150827102252-donald-trump-july-10-2015-super-169.jpg","Forename":"DarkOliveGreen1035967","Surname":"Wheat","Age":63,"IsDangerous":true,"Tags":["Alzheimer's","Missing"],"Status":"Returned"},{"UserID":"383A363B3E36333A363A","Latitude":53.5895,"Longitude":-2.328361,"LastSeen":"2014-05-26T22:30:00","ProfileURL":"https://assets.donaldjtrump.com/site/about_body_img_1.jpg","Forename":"Linen1031263","Surname":"DarkViolet","Age":31,"IsDangerous":false,"Tags":["Missing"],"Status":"Returned"},{"UserID":"383A363D3E36363A363B","Latitude":53.38032,"Longitude":-2.279676,"LastSeen":"2016-01-04T15:38:00","ProfileURL":"http://jtf.org/wp-content/uploads/2015/08/hillary-clinton-laughing.jpg","Forename":"Cornsilk1017801","Surname":"DarkSeaGreen","Age":3,"IsDangerous":true,"Tags":["Toddler","Missing"],"Status":"Returned"},{"UserID":"383A373B4036353A383A","Latitude":53.56507,"Longitude":-2.384813,"LastSeen":"2014-09-07T11:55:00","ProfileURL":"http://static4.businessinsider.com/image/55fad9869dd7cc15008bb1ba-480/hillary-clinton-thumbs-up.jpg","Forename":"White1028302","Surname":"DarkGreen","Age":26,"IsDangerous":false,"Tags":["Missing"],"Status":"Returned"},{"UserID":"383A353C4236343A3A3B","Latitude":53.53533,"Longitude":-2.292059,"LastSeen":"2015-10-29T20:30:00","ProfileURL":"http://img.wonkette.com/wp-content/uploads/2016/08/nbc-fires-donald-trump-after-he-calls-mexicans-rapists-and-drug-runners.jpg","Forename":"Tomato1002841","Surname":"Yellow","Age":18,"IsDangerous":false,"Tags":["Missing"],"Status":"Returned"},{"UserID":"383A363C3C36333A343B","Latitude":53.53108,"Longitude":-2.22104,"LastSeen":"2015-08-14T15:00:00","ProfileURL":"http://static4.businessinsider.com/image/56c640526e97c625048b822a-480/donald-trump.jpg","Forename":"OliveDrab1008149","Surname":"AliceBlue","Age":18,"IsDangerous":false,"Tags":["Missing"],"Status":"Returned"},{"UserID":"383A363A3F36383A3739","Latitude":53.53898,"Longitude":-2.083332,"LastSeen":"2014-04-23T14:00:00","ProfileURL":"http://twt-thumbs.washtimes.com/media/image/2015/12/08/DEM_2016_Clinton.JPEG-09fe7_c0-174-2166-1436_s885x516.jpg?9867f27f8024a954e67a9f6c533524dcb1e43d0d","Forename":"Peru1051525","Surname":"SlateBlue","Age":5,"IsDangerous":false,"Tags":["Toddler","Missing"],"Status":"Dormant"},{"UserID":"383A373A3B36383A3339","Latitude":53.51367,"Longitude":-2.227435,"LastSeen":"2016-02-22T08:00:00","ProfileURL":"https://mises.org/sites/default/files/23158392405_d3e3b60cb8_o.jpg","Forename":"Orchid1086847","Surname":"LightCyan","Age":39,"IsDangerous":false,"Tags":["Missing"],"Status":"Returned"},{"UserID":"383A373A3F36393A3739","Latitude":53.48122,"Longitude":-2.1199,"LastSeen":"2013-11-18T00:00:00","ProfileURL":"http://i2.cdn.turner.com/cnnnext/dam/assets/150827102252-donald-trump-july-10-2015-super-169.jpg","Forename":"Gold1072065","Surname":"LightSteelBlue","Age":54,"IsDangerous":false,"Tags":["Missing"],"Status":"Returned"},{"UserID":"383A363D3C36373A343B","Latitude":53.5447,"Longitude":-2.130433,"LastSeen":"2016-02-09T14:56:00","ProfileURL":"http://jtf.org/wp-content/uploads/2015/08/hillary-clinton-laughing.jpg","Forename":"MidnightBlue1057844","Surname":"WhiteSmoke","Age":4,"IsDangerous":true,"Tags":["Toddler","Missing"],"Status":"Returned"},{"UserID":"383A373B3C36333A343A","Latitude":53.46678,"Longitude":-2.208081,"LastSeen":"2014-05-19T18:00:00","ProfileURL":"https://assets.donaldjtrump.com/site/about_body_img_1.jpg","Forename":"DarkRed1030008","Surname":"AliceBlue","Age":36,"IsDangerous":false,"Tags":["Missing"],"Status":"Returned"},{"UserID":"383A363D3F36383A373B","Latitude":53.50659,"Longitude":-2.426913,"LastSeen":"2016-04-02T21:00:00","ProfileURL":"http://img.wonkette.com/wp-content/uploads/2016/08/nbc-fires-donald-trump-after-he-calls-mexicans-rapists-and-drug-runners.jpg","Forename":"Purple1015277","Surname":"DarkTurquoise","Age":17,"IsDangerous":true,"Tags":["Missing"],"Status":"Returned"},{"UserID":"383A373B39363C3A3139","Latitude":53.5038,"Longitude":-2.474608,"LastSeen":"2014-03-17T22:35:00","ProfileURL":"http://static4.businessinsider.com/image/56c640526e97c625048b822a-480/donald-trump.jpg","Forename":"DarkOliveGreen1030579","Surname":"Gainsboro","Age":33,"IsDangerous":true,"Tags":["Missing"],"Status":"Returned"},{"UserID":"383A363D3E36373A363B","Latitude":53.63624,"Longitude":-2.139942,"LastSeen":"2016-02-19T23:25:00","ProfileURL":"http://static4.businessinsider.com/image/55fad9869dd7cc15008bb1ba-480/hillary-clinton-thumbs-up.jpg","Forename":"MediumBlue1081497","Surname":"MidnightBlue","Age":28,"IsDangerous":false,"Tags":["Missing"],"Status":"Returned"},{"UserID":"383A363B3936383A313A","Latitude":53.48604,"Longitude":-2.245268,"LastSeen":"2014-12-19T20:00:00","ProfileURL":"http://i2.cdn.turner.com/cnnnext/dam/assets/150827102252-donald-trump-july-10-2015-super-169.jpg","Forename":"Aquamarine1037325","Surname":"MediumSlateBlue","Age":22,"IsDangerous":false,"Tags":["Missing"],"Status":"Returned"},{"UserID":"383A363C4136333A393B","Latitude":53.38439,"Longitude":-2.130288,"LastSeen":"2015-09-16T15:05:00","ProfileURL":"https://assets.donaldjtrump.com/site/about_body_img_1.jpg","Forename":"HotPink1037024","Surname":"Moccasin","Age":39,"IsDangerous":false,"Tags":["Missing"],"Status":"Returned"},{"UserID":"383A353D3936383A313B","Latitude":53.39088,"Longitude":-2.209004,"LastSeen":"2016-06-15T11:45:00","ProfileURL":"http://twt-thumbs.washtimes.com/media/image/2015/12/08/DEM_2016_Clinton.JPEG-09fe7_c0-174-2166-1436_s885x516.jpg?9867f27f8024a954e67a9f6c533524dcb1e43d0d","Forename":"PowderBlue1007340","Surname":"LightCyan","Age":15,"IsDangerous":false,"Tags":["Missing"],"Status":"Returned"},{"UserID":"383A363D40363A3A383B","Latitude":53.49283,"Longitude":-2.070066,"LastSeen":"2016-06-27T19:41:00","ProfileURL":"https://mises.org/sites/default/files/23158392405_d3e3b60cb8_o.jpg","Forename":"MediumVioletRed1077116","Surname":"DarkGreen","Age":18,"IsDangerous":false,"Tags":["Missing"],"Status":"Returned"},{"UserID":"383A363B39363C3A3139","Latitude":53.58636,"Longitude":-2.409118,"LastSeen":"2014-03-17T19:19:00","ProfileURL":"http://img.wonkette.com/wp-content/uploads/2016/08/nbc-fires-donald-trump-after-he-calls-mexicans-rapists-and-drug-runners.jpg","Forename":"Moccasin1075173","Surname":"Brown","Age":15,"IsDangerous":false,"Tags":["Missing"],"Status":"Returned"},